序號,縣市及鄉鎮市區,村里,避難收容處所地址,經度,緯度,避難收容處所名稱,預計收容村里,預計收容人數,適用災害類別,管理人姓名,管理人電話,室內,室外,適合避難弱者安置,TWD97_lon,TWD97_lat,is_indoor
1,新竹縣,,,121.073,24.386,五峰活動中心,大隘村、花園村、桃山村、竹林村,110,"水災,震災,土石流",張兒,03-5851001,是,否,是,257404.817068999,2697774.5500193727,True
2,金門縣烈嶼鄉,林湖村,東林24號,118.248571,24.428328,金門縣烈嶼鄉林湖村辦公處,林湖村,30,"水災,震災,土石流,海嘯",林妙玲,082-364503,是,否,是,-29071.526020820427,2705233.1037620646,True
3,新竹縣北埔鄉,南坑村,9鄰大南坑1-5號,121.0561,24.6725,南坑村集會所暨南外社區活動中心,南坑村、外坪村,20,"水災,震災,土石流",葉貴霖,03-5805355,否,否,否,255677.65224042838,2729505.0273858365,True
4,金門縣烏坵鄉,小坵村,無門牌號碼,119.47,24.98,烏坵鄉小坵村活動中心,小坵村,20,,莊金輝,82666056,否,否,否,95524.9230264625,2764433.4731077407,True
5,金門縣烏坵鄉,大坵村,1號,119.453178,24.988739,金門縣烏坵鄉公所大廳,烏坵鄉大坵村,30,,林文彩,0826-66056,否,否,否,93837.28163420851,2765420.9130113167,True
6,桃園市復興區,霞雲里,6鄰22-1號,121.406238,24.814018,霞雲社區活動中心,霞雲里,36,"水災,震災,土石流,海嘯",呂品秀,03-3821500#124,是,否,否,291067.39639505884,2745239.2180717834,True
7,桃園市復興區,澤仁里,14鄰中正路168之1號,121.351987,24.820601,澤仁里辦公處,澤仁里,40,"水災,震災,土石流,海嘯",呂品秀,03-3821500#124,是,否,否,285581.12778388226,2745953.1244394667,True
8,桃園市復興區,奎輝里,3鄰羅馬路3段355號,121.334302,24.797047,奎輝里活動中心,奎輝里,50,"水災,震災,土石流,海嘯",呂品秀,03-3821500#124,是,否,否,283799.7867562293,2743339.784173266,True
9,桃園市復興區,高義里,6鄰48號,121.354462,24.706112,高義教會,高義里,61,"水災,震災,土石流,海嘯",呂品秀,03-3821500#124,是,否,否,285864.1797536997,2733273.006491552,True
10,連江縣莒光鄉,大坪村,57-1號,119.977206,25.956666,東莒老人活動中心,大坪村,0,,曹以樹,0836-8914621,否,否,否,147569.526487154,2872146.683791422,True
12,連江縣莒光鄉,西坵村,莒光指揮部國軍文康中心,119.932125,25.97828,莒光指揮部國軍文康中心,西坵村,0,,朱永元指揮官,0836-89217,否,否,否,143073.99383602175,2874577.3225479866,True
14,連江縣莒光鄉,青帆村,1號,119.933712,25.969995,青帆老人活動中心,青帆村,150,,曹以樹,0836-89416,否,否,否,143225.42886700475,2873658.1438496024,True
15,連江縣莒光鄉,青帆村,18號,119.933934,25.970819,敬恆國中小禮堂,青帆村,200,,陳玉嬌,0836-88254,否,否,否,143248.40471074404,2873749.2522834926,True
16,連江縣莒光鄉,大坪村,4號,119.97711,25.957484,東莒國小綜合教室,大坪村,200,,林湘官,0836-89043203,否,否,否,147560.61989617505,2872237.382875466,True
18,桃園市觀音區,上大里,8鄰大湖路一段510號,121.147333,24.978234,上大社區活動中心,上大村、富源村、崙坪村,0,,魏秀有,919103049,否,否,否,264874.42183170986,2763374.8013829496,True
19,桃園市觀音區,武威里,4鄰武威一路10號,121.073317,25.028242,武威社區活動中心,武威村、三和村、保生村,0,,廖介文,972196113,否,否,否,257398.92637130877,2768907.7073457106,True
20,桃園市觀音區,塔腳里,4鄰塔腳路116號,121.154708,25.049298,塔腳社區活動中心,塔腳村、廣福村、保障村,0,,莊林乾,932948680,否,否,否,265610.00027445785,2771246.840429856,True
21,桃園市觀音區,廣福里,福山路二段403巷6號,121.153383,25.019018,廣福社區活動中心,廣福村、新坡村、草漯村,0,,陳秀鳳,4983945,否,否,否,265480.10721879674,2767892.797494156,True
22,桃園市觀音區,草新里,新生路1462號,121.142939,25.045941,草漯國民小學,草漯村、樹林村、保障村,100,,羅淑貞,4830160#51,否,否,否,264422.9020577828,2770873.7039513895,True
23,桃園市觀音區,上大里,8鄰大湖路一段540號,121.146755,24.979129,上大國民小學,上大村、富源村、崙坪村,100,,張秀琪,4901174#510,否,否,否,264815.9608934036,2763473.8698890503,True
24,桃園市觀音區,崙坪里,崙坪里297之1號,121.162676,24.999596,崙坪國民小學,崙坪村、大同村、上大村,100,,吳曉芬,4981286#51,否,否,否,266420.58264584944,2765742.6673660167,True
25,桃園市觀音區,富林里,大觀路三段466號,121.1285,25.062195,富林國民小學,富林村、廣興村、草漯村,100,,王文昌,4839049#51,否,否,否,262964.2593691941,2772672.5813974584,True
26,桃園市觀音區,樹林里,觀音鄉樹林村新村路二段十二號,121.128468,25.062176,樹林國民小學,樹林村、草漯村、富林村,100,,張麗君,4830414#51,否,否,否,262961.0329108486,2772670.4738353062,True
27,桃園市觀音區,觀音里,觀新路56號,121.083597,25.028281,觀音區公所綠資源中心,觀音村、三和村、武威村,0,,許誌峰,925629102,否,否,否,258436.35016597094,2768912.6280745813,True
29,高雄市前鎮區,竹中里,廣西路57號,120.32,22.615,高雄市前鎮區光華國民小學,全區綜合調度,300,"水災,震災,土石流,海嘯",總務組,7222846,否,否,是,180094.35658676972,2501811.4981231242,True
30,臺東縣大武鄉,大武村,民族街2巷49號,120.905497,22.365009,大武國小,收容大鳥村1-6鄰，15-16鄰,350,"水災,震災,土石流,海嘯",陳佩瑜,089-791826,是,否,是,240267.55742194864,2473974.558936905,True
31,苗栗縣頭份市,尖下里,尖豐路305號,120.894048,24.64686,尖山國小操場,尖山里、尖下里、廣興里,200,"水災,震災,土石流,海嘯",李鴻明,037-624474#29,否,是,是,239274.8362033007,2726668.1990249073,False
32,高雄市小港區,鳳源里,鳳林路207號,120.343,22.527,高雄市小港區鳳林國民小學,鳳林、鳳源,300,"水災,震災,土石流,海嘯",陳宜亨,8712367＊710,否,否,否,182415.9970469285,2492056.459382722,True
45,屏東縣霧臺鄉,大武村,2鄰小山巷7號,120.754782,22.757534,大武社區活動中心,大武村,30,"水災,土石流",歐光夫,932451102,是,否,是,224817.4143569943,2517455.4087935435,True
46,花蓮縣秀林鄉,和平村,和平112號,121.748879,24.308073,和平國小,和中部落,250,"水災,土石流",蔡金郎,03-868113,是,否,否,326011.1106517919,2689346.507640283,True
47,屏東縣瑪家鄉,佳義村,泰平巷11號,120.630874,22.653475,佳義社區活動中心,佳義村,0,"水災,土石流",葉明仁,08-7990209,是,否,是,212063.96371071367,2505959.2972437395,True
48,彰化縣員林市,中東里,山腳路五段185巷20號,120.599689,23.971414,中東社區活動中心,崙雅里 振興里 林厝里 出水里 湖水里 大峰里 鎮興里 浮圳里 西東里 南東里 中東里 東北里 共12里,30,"水災,土石流,海嘯",黃勝裕,8347171,否,否,否,209262.50343276086,2651915.131982898,True
49,彰化縣員林市,三和里,育英路103號,120.574848,23.961057,崇實高工體育館,中正里 和平里 忠孝里 仁愛里 三橋里 三愛里 三信里 三多里 共8里,80,"水災,震災,土石流,海嘯",張文福,8347171,否,否,否,206731.0808117884,2650775.506169512,True
50,彰化縣彰化市,東芳里,彰馬路45號,120.516345,24.062538,東芳國小,東芳里南安里刺桐里磚?里,145,"水災,震災,土石流,海嘯",楊娣雅,72221411710,否,否,否,200815.5826774982,2662033.701629367,True
51,彰化縣員林市,三義里,員鹿路245巷112號,120.563531,23.95268,三義社區活動中心,三義里 新生里 南平里 南興里 源潭里 大埔里 共6里,200,"水災,土石流,海嘯",?淑娟,8347171,否,否,否,205576.43318130882,2649851.2815413116,True
52,彰化縣員林市,三和里,大同路一段345號,120.579502,23.963213,大同國中,中正里 和平里 忠孝里 仁愛里 三橋里 三愛里 三信里 三多里 共8里,200,"水災,震災,土石流,海嘯",張文福,8347171,否,否,否,207205.44901205474,2651012.860593698,True
53,彰化縣員林市,萬年里,員水路二段313號,120.581692,23.955187,員林農工體育館,崙雅里 振興里 林厝里 出水里 湖水里 大峰里 鎮興里 浮圳里 西東里 南東里 中東里 東北里 共12里,200,"水災,震災,土石流,海嘯",陳宗虎,8347171,否,否,否,207425.69509699158,2650123.330120588,True
54,彰化縣員林市,南東里,員東路二段12號,120.587309,23.961879,員林市員東國小,崙雅里 振興里 林厝里 出水里 湖水里 大峰里 鎮興里 浮圳里 西東里 南東里 中東里 東北里 共12里,200,"水災,震災,土石流,海嘯",盧佳玉,8347171,否,否,否,207999.55328452258,2650862.7756562047,True
55,彰化縣員林市,南興里,南潭路2號,120.557085,23.979184,員林市員林國中活動中心,三義里 新生里 南平里 南興里 源潭里 大埔里 共6里,200,"水災,震災,土石流,海嘯",盧佳玉,8347171,否,否,否,204929.57121800433,2652788.6140474332,True
56,彰化縣員林市,中正里,三民東街221號,120.57921,23.960059,員林市員林國小,中正里 和平里 忠孝里 仁愛里 三橋里 三愛里 三信里 三多里 共8里,300,"水災,震災,土石流,海嘯",陳淑莉,8347171,否,否,否,207174.68962353808,2650663.648106506,True
57,臺中市南區,平和里,忠明南路與五權南路交叉口,120.667553,24.119757,健康公園,南和.永興.積善,7500,震災,劉萬貴,04-22289111-33920,否,是,是,216207.55706326745,2668326.03686577,False
58,屏東縣屏東市,北勢里,信義路262號,120.49197,22.68523,屏東市信義國小,北勢里,965,"水災,震災",朱健華,08-7383628#14,是,是,是,197800.22742925346,2509517.6626307317,True
59,臺中市太平區,黃竹里,光興路1001號,120.7305,24.1112,光隆營區,黃竹里,80,"水災,土石流",許仲明少校,546365軍,是,是,否,222604.18321984034,2667364.617167171,True
60,彰化縣彰化市,福田里,彰南路五段8號,120.613159,24.068651,大快官藝文館,福田里、台鳳里、竹巷里、快官里,45,"水災,震災,土石流,海嘯",楊娣雅,04-72221411710,否,否,否,210662.88380289805,2662680.2196907816,True
61,彰化縣彰化市,香山里,彰南路二段512巷97號,120.589342,24.08054,彰德國中勤學樓、育英樓穿堂,香山里,45,"水災,震災,土石流,海嘯",楊娣雅,4.72E+11,否,否,否,208244.80166380812,2664003.8022938045,True
62,彰化縣彰化市,介壽里,介壽新村21號,120.551727,24.070873,介壽社區活動中心,介壽里,45,"水災,震災,土石流,海嘯",楊娣雅,04-72221411710,否,否,否,204416.6875241444,2662944.874558621,True
63,彰化縣彰化市,國聖里,中山路三段608號,120.568089,24.092292,國聖國小,國聖里文化里龍山里中山里中正里中庄里三村里古夷里,54,"水災,震災,土石流,海嘯",楊娣雅,04-72221411710,否,否,否,206087.80027901428,2665311.825577241,True
64,彰化縣彰化市,石牌里,田坑路一段9號,120.614942,24.058558,石牌國小,石牌里,63,"水災,震災,土石流,海嘯",楊娣雅,04-72221411710,否,否,否,210841.13233143964,2661561.924422842,True
65,彰化縣彰化市,茄苳里,茄苳路二段292號,120.547944,24.10378,茄苳社區活動中心,茄苳里、寶?里、茄南里,64,"水災,土石流,海嘯",楊娣雅,04-72221411710,否,否,否,204043.73789479223,2666590.5812981525,True
66,彰化縣彰化市,田中里,田中路125號,120.604547,24.085743,三民國小,田中里,77,"水災,震災,土石流,海嘯",楊娣雅,04-72221411710,否,否,否,209792.46703812323,2664575.597506058,True
67,彰化縣彰化市,崙平里,平和七街66號,120.529851,24.068206,南北管戲曲音樂館,崙平里,77,"水災,震災,土石流,海嘯",施政興,04-7639509,否,否,否,202191.17235365347,2662656.7745760884,True
68,彰化縣彰化市,牛埔里,彰南路三段226號,120.597531,24.081368,牛埔社區活動中心,牛埔里,78,"水災,震災,土石流,海嘯",楊娣雅,4.72E+11,否,否,否,209077.72119776654,2664093.092618199,True
69,彰化縣彰化市,桃源里,公園路二段102之1號,120.559047,24.072547,桃源社區活動中心,桃源里卦山里東興里華陽里復興里,90,"水災,震災,土石流,海嘯",楊娣雅,04-72221411710,否,否,否,205161.62464644396,2663127.9147490994,True
70,彰化縣彰化市,南興里,中山路一段189巷49號,120.533189,24.056604,南興社區活動中心,南興里,93,"水災,震災,土石流,海嘯",楊娣雅,04-72221411718,否,否,否,202526.3456516824,2661370.71516683,True
71,彰化縣彰化市,快官里,彰南路四段566號之1,120.612013,24.068422,快官社區活動中心,台鳳里、竹巷里、快官里,115,"水災,震災,土石流,海嘯",楊娣雅,04-72221411710,否,否,否,210546.27803298994,2662655.1793423854,True
72,彰化縣彰化市,福山里,福山街168號,120.571394,24.082668,福山社區活動中心,福山里安溪里,177,"水災,震災,土石流,海嘯",楊娣雅,04-72221411710,否,否,否,206420.56818385437,2664244.9328060825,True
73,彰化縣彰化市,延和里,埔西街111號,120.538252,24.059306,延和社區活動中心,延和里延平里建寶里,184,"水災,震災,土石流,海嘯",楊娣雅,04-72221411710,否,否,否,203042.23233066793,2661668.2618864505,True
74,彰化縣彰化市,阿夷里,泰和路二段145巷1號,120.55168,24.092496,泰和國小,阿夷里、下?里、興北里、信義里、民生里、陽明里、萬安里、新興里、新華里、光復里、和調里,203,"水災,震災,土石流,海嘯",楊娣雅,04-72221411710,否,否,否,204419.55425479944,2665339.650068745,True
75,彰化縣彰化市,延和里,埔西街107號,120.538251,24.059274,彰興國中,延和里延平里建寶里,242,"水災,震災,土石流,海嘯",楊娣雅,04-72221411710,否,否,否,203042.11898933386,2661664.7182072084,True
76,彰化縣彰化市,向陽里,向陽街168號,120.52814,24.062723,信義國中小,向陽里南美里平和里,399,"水災,震災,土石流,海嘯",楊娣雅,04-7221411710,否,否,否,202015.14105015263,2662050.1122903223,True
77,彰化縣和美鎮,雅溝里,南軒路359巷7號,120.492521,24.099707,雅溝社區活動中心,雅溝,150,"水災,土石流,海嘯",張敬堂,7552354,否,否,否,198407.68009311816,2666158.758644125,True
80,屏東縣滿州鄉,港口村,港口路42號,120.8271,21.9912,港口社區活動中心,港口村,50,"水災,土石流",楊秀蘭,08-8801356,是,否,是,232146.638931457,2432592.8564935243,True
81,屏東縣恆春鎮,城南里,文化路79號,120.7475,22.0031,恆春國中收容所,城南里,1400,"水災,震災,土石流,海嘯",郭君毓,08-8892039,是,否,是,223929.42020115728,2433921.849858925,True
82,屏東縣恆春鎮,城南里,天文路1號,120.7474,22.0038,恆春鎮公所,城南里,220,"水災,震災,土石流,海嘯",洪合益,08-8896883,是,否,是,223919.2231906489,2433999.3709281078,True
83,屏東縣滿州鄉,永靖村,庄內路33巷8-1號,120.8092,22.0052,永靖社區活動中心,永靖村,30,"水災,土石流,海嘯",潘一福,08-8802248,是,否,否,230300.24407323697,2434145.127933957,True
84,屏東縣滿州鄉,永靖村,新庄路25號,120.817377,22.005679,永港國民小學,永靖村,100,"水災,土石流,海嘯",王嚲駿,08-8801125#14,是,是,是,231144.57003348984,2434197.1317990324,True
85,屏東縣恆春鎮,城北里,北門路39巷26號,120.7466,22.0064,恒春國小收容所,城北里,200,"水災,震災,土石流,海嘯",蔡迪偉,08-8892035,是,否,是,223837.1003927872,2434287.379721246,True
86,屏東縣恆春鎮,城西里,西門路146號,120.7442,22.0087,僑勇國小收容所,城西里,430,"水災,震災,土石流,海嘯",周淑琴,08-8893034,是,否,是,223589.73140790648,2434542.448550973,True
87,屏東縣滿州鄉,滿州村,中山路39號,120.838101,22.020382,滿州國民小學,滿州村,100,"水災,震災,土石流,海嘯",徐培祥,08-8801162#14,是,是,是,233286.00676484389,2435822.6330100037,True
88,屏東縣滿州鄉,滿州村,中山路43號,120.8386,22.0209,屏東縣滿州鄉公所,滿州村、里德村,30,"水災,土石流,海嘯",羅美娟,08-8801105#703,是,否,是,233337.58278315124,2435879.931370713,True
90,屏東縣滿州鄉,滿州村,中山路107號,120.8371,22.0233,滿州社區活動中心,滿州村,30,"水災,土石流,海嘯",潘啟元,08-8801375,是,否,是,233183.0105905523,2436145.8232635465,True
91,屏東縣滿州鄉,滿州村,中山路152號,120.8377,22.0243,屏東縣滿州鄉圖書館,滿州村、永靖村,100,"水災,土石流,海嘯",王淑娟,08-8801105#302,是,否,是,233245.06934979477,2436256.477190311,True
92,屏東縣滿州鄉,滿州村,文化路32號,120.839695,22.024499,滿州國民中學,滿州村 里德村,100,"水災,震災,土石流,海嘯",簡亞藍,08-8801106#14,是,是,是,233451.0453331594,2436278.2930095457,True
93,臺東縣蘭嶼鄉,紅頭村,臺東縣蘭嶼鄉紅頭村漁人147號,121.539,22.026,蘭恩活動中心,紅頭村漁人部落,500,"水災,震災,土石流",希瑪拉歐斯執行長,（089）732073,是,否,否,305643.1762446632,2436533.958079843,True
95,屏東縣滿州鄉,,福德路64巷3號,120.8335,22.0377,響林活動中心,響林村,50,"水災,土石流,海嘯",王登興,08-8801348,是,否,是,232813.1015812788,2437740.591147336,True
96,臺東縣蘭嶼鄉,椰油村,1號,121.5176,22.0453,椰油國民小學,椰油國小附近住戶,100,"水災,震災,土石流",蔡美英,（089）732017,是,否,是,303426.67919604277,2438663.271264228,True
97,臺東縣蘭嶼鄉,椰油村,臺東縣蘭嶼鄉椰油村34號,121.5126,22.0494,蘭嶼完全高級中學,椰油村,500,"水災,震災,土石流",鍾蘭芬,（089）732016#203,是,否,否,302909.0445321581,2439115.494147783,True
98,屏東縣車城鄉,保力村,保力路30號,120.7275,22.0561,屏東縣立車城國小保力分校,保力村、統埔村,63,"水災,震災,海嘯",王菀珊,08-8821009,是,否,是,221874.8813460471,2439793.5812443793,True
99,屏東縣車城鄉,埔墘村,埔墘路38號,120.7118,22.0567,屏東縣立車城國小射寮分校,後灣村、射寮村、埔墘村、新街村,63,"水災,震災",董倫賢,08-8821010,是,否,是,220254.5775388373,2439862.991234266,True
100,屏東縣車城鄉,福興村,新興路42號,120.7165,22.0729,屏東縣立車城國中,福興村、福安村、統埔村,350,"水災,震災,海嘯",陳忠能,08-8821045,是,否,是,220743.00634601247,2441655.7634918857,True
101,屏東縣牡丹鄉,四林村,四林路80號,120.8139,22.0731,高士國小牡林分校,四林村,304,"水災,震災,土石流,海嘯,核子事故",曾村長蘭妹,08-8811160,是,是,是,230794.67470574263,2441662.428158211,True
102,屏東縣滿州鄉,長樂村,和平路21號,120.8258,22.0742,長樂村長壽俱樂部,長樂社區,50,"水災,土石流,海嘯",陳秀華,08-8811815,是,否,是,232022.88423908767,2441782.7697351663,True
103,屏東縣車城鄉,福興村,中山路66號,120.7146,22.0749,屏東縣立車城國小,福興村、福安村、田中村、海口村,250,"水災,震災,海嘯",徐志明,08-8821006,是,否,是,220547.34109016144,2441877.571687591,True
104,屏東縣滿州鄉,長樂村,大公路35號,120.8286,22.0755,長樂國小,分水嶺社區,120,"水災,土石流,海嘯",楊惠芳,08-8811045#14,是,是,否,232312.00147752956,2441926.3789699394,True
105,屏東縣車城鄉,福安村,福安路5之1號,120.7119,22.0766,車城福安宮香客大樓,福興村、福安村、田中村、海口村,100,"水災,震災,海嘯",陳泰崇,08-8821345,是,否,是,220269.06098884685,2442066.3218687065,True
106,臺東縣蘭嶼鄉,朗島村,臺東縣蘭嶼鄉朗島村17號,121.5286,22.0792,朗島國小,朗島村,100,"水災,震災,土石流",陳客宏,89732019,是,否,是,304549.1147862928,2442420.687134096,True
107,屏東縣車城鄉,溫泉村,文化路23號,120.7487,22.096,屏東縣立車城國小溫泉分校,溫泉村,63,"水災,震災,海嘯",邱麗文,08-8821005,是,否,是,224070.25695120374,2444207.5931720543,True
108,屏東縣滿州鄉,九棚村,九棚路大愛巷6號,120.87378,22.111079,九棚永久屋大愛基地活動中心,九棚村,100,"水災,震災,土石流",羅美娟,08-8801105#703,是,是,否,236977.7209873425,2445861.1580682495,True
109,屏東縣牡丹鄉,高士村,高士路29號,120.847,22.1248,高士國小,高士村,350,"水災,震災,土石流,海嘯",李村長德福,08-8810497,是,是,是,234216.31722541456,2447382.8960683057,True
110,屏東縣牡丹鄉,石門村,石門路18號,120.774,22.1254,石門村活動中心,石門村,100,"水災,震災,土石流,海嘯",林村長一江,08-8831045,是,否,是,226685.61554925283,2447458.709754541,True
111,屏東縣滿州鄉,港仔村,港仔路67號,120.8815,22.1334,港仔活動中心,港仔村,50,"水災,土石流",鍾登讚,08-8810429,是,否,是,237776.12899000008,2448331.921792226,True
112,屏東縣獅子鄉,竹坑村,竹坑一巷1鄰8號,120.7012,22.1454,竹坑活動中心,竹坑村,40,"水災,震災,土石流",蔡錫金,08-8770106,是,否,是,219179.80356828615,2449686.106406211,True
113,屏東縣牡丹鄉,牡丹村,牡丹路93號,120.8377,22.1766,牡丹國小,牡丹村,350,"水災,震災,土石流,海嘯",葉村長德生,08-8830057,是,是,是,233263.04073574298,2453119.267044173,True
114,屏東縣枋山鄉,善餘村,光復24號,120.6922,22.1902,楓港國民小學,善餘村,90,"水災,震災,土石流,海嘯",黃志宏,08-8771158,是,否,是,218261.53288909633,2454648.3323080665,True
115,屏東縣牡丹鄉,旭海村,旭海路93-1號,120.8786,22.1917,旭海村活動中心,旭海村,250,"水災,震災,土石流",潘村長呈清,08-8830117,是,是,是,237482.1386148242,2454787.2257902357,True
116,屏東縣枋山鄉,楓港村,村舊庄1-2號,120.6895,22.193,楓港老人文康中心,楓港村,80,"水災,震災,土石流,海嘯",鄭美紋,08-8772073,是,否,是,217983.7579178995,2454958.923971563,True
117,屏東縣獅子鄉,楓林村,楓林二巷22之2號,120.7038,22.2022,楓林國小,楓林村,50,"水災,震災,土石流",梁恆毅,08-8771371,是,否,是,219460.25719174193,2455974.626175714,True
118,屏東縣獅子鄉,丹路村,丹路一巷39號,120.7515,22.2034,丹路國小,丹路村,50,"水災,震災,土石流",蔡金樹,08-8771144,是,是,是,224378.61450118496,2456098.6593845556,True
119,屏東縣獅子鄉,楓林村,舊庄280號,120.7014,22.2051,獅子鄉立綜合體育館,全鄉,100,"水災,震災,土石流",朱元龍,08-8771129#25,是,否,是,219213.43563609428,2456296.2083527213,True
120,屏東縣牡丹鄉,東源村,東源路6號,120.851,22.2052,東源村活動中心,東源村,250,"水災,震災,土石流,海嘯",賴村長光明,08-8830116,是,是,是,234637.69717436313,2456284.511378861,True
121,屏東縣獅子鄉,內文村,3鄰26號,120.8507,22.2183,內文活動中心,內文村,40,"水災,震災,土石流",江新春,08-8700005,是,否,是,234608.19511395818,2457735.0044397977,True
122,屏東縣獅子鄉,獅子村,3鄰35號,120.6805,22.2323,獅子活動中心,獅子村,0,"水災,震災,土石流",林文旭,08-8761194,是,是,否,217064.91743079826,2459312.27756909,True
123,屏東縣獅子鄉,草埔村,6鄰64號,120.8014,22.2341,草埔活動中心,草埔村,40,"水災,土石流",朱山櫻,08-8701163,是,否,是,229527.98455341274,2459490.2586197634,True
124,屏東縣枋山鄉,枋山村,枋山路82號,120.6524235,22.26396799,枋山鄉公所,枋山村,50,"水災,震災,土石流,海嘯",陳緯玲,07-8761107,是,否,是,214178.73120310626,2462825.059787383,True
125,屏東縣枋山鄉,枋山村,國中路1號,120.6606,22.2643,枋寮高中正成分校,枋山村,150,"水災,土石流,海嘯",徐敏雄,08-8761140,是,否,是,215021.4917763116,2462859.9072795208,True
126,臺東縣達仁鄉,南田村,臺東縣達仁鄉南田村3鄰20號,120.890256,22.276682,南田基督教會,南田村,50,,高富源,089-702116,否,否,否,238690.83909616584,2464195.73123429,True
127,臺東縣達仁鄉,森永村,臺東縣達仁鄉森永村3鄰31號,120.864826,22.280641,森永活動中心,森永村,100,,歐慧玲,089-702136,否,否,否,236070.6568409843,2464636.207605488,True
128,臺東縣達仁鄉,南田村,臺東縣達仁鄉南田村10之2號,120.888972,22.286514,南田活動中心,南田村,100,,村長 楊陳田龍,089-702285,否,否,否,238559.32214673082,2465284.45805656,True
129,臺東縣達仁鄉,森永村,臺東縣達仁鄉安朔村2鄰20號,120.866016,22.292996,安朔基督教會,安朔村,50,,林正行,089-702277,是,否,否,236194.49672611267,2466004.0848587444,True
130,臺東縣達仁鄉,安朔村,6鄰安朔路114號,120.867753,22.293497,安朔集會所,安朔村,50,,村長 汪淑惠,089-702071,否,否,否,236373.52330895184,2466059.399537831,True
131,臺東縣達仁鄉,安朔村,臺東縣達仁鄉安朔村8鄰113號,120.868276,22.294292,安朔國小,安朔村,200,,校長顏正一,089-702275,是,否,是,236427.48906312772,2466147.3775459677,True
132,臺東縣達仁鄉,安朔村,9鄰復興路14號,120.883062,22.297005,達仁鄉公所禮堂,安朔村、南田村、森永村,100,,黃恩潔,089-702249,否,否,否,237951.23566784745,2466446.5158836246,True
134,屏東縣獅子鄉,內獅村,內獅村1號,120.6427,22.3052,內獅國小,內獅村、南世村,0,"水災,震災,土石流",周宗憲,08-8720034,是,否,是,213187.41333383718,2467392.793252568,True
135,臺東縣大武鄉,南興村,達興路173號,120.8867,22.3104,南興村社區活動中心,南興社區,200,"水災,土石流,海嘯",鍾皓如,089-702165,是,否,否,238327.19220716594,2467929.371088986,True
136,屏東縣琉球鄉,南福村,忠孝路1-10號,120.3634,22.3284,南福社區活動中心,南福村,50,"水災,震災,土石流,海嘯",黃文裕,8611579,是,否,是,184421.33577463147,2470056.425754907,True
137,屏東縣枋山鄉,加祿村,會社28號,120.6211,22.3302,加祿國民小學,加祿村,60,"水災,震災,土石流,海嘯",翁和正,08-8720060,是,否,是,210968.89627802803,2470166.3510085903,True
138,屏東縣琉球鄉,大福村,和平路3巷14-1號,120.3708,22.3338,大福社區活動中心,大福村,100,"水災,震災,土石流,海嘯",洪蔡麗霞,8613920,是,否,是,185186.1559058385,2470651.1602109307,True
139,屏東縣琉球鄉,大福村,中正路158號,120.3685,22.336,琉球國中,本福村、大福村,200,"水災,震災,土石流,海嘯",蔡妙美,8612509,是,否,是,184950.24659135772,2470895.7536104964,True
140,屏東縣琉球鄉,大福村,中正路293號,120.3683,22.3371,琉球國小,大福村、南福村,200,"水災,震災,土石流,海嘯",張簡振豐,8612597,是,否,是,184930.1547115574,2471017.641370047,True
141,臺東縣大武鄉,尚武村,政通3街1號,120.8818,22.342,尚武村社區活動中心,大鳥社區7~9鄰,100,"水災,震災,土石流,海嘯",葉雅綸,089-791917,是,否,是,237825.1079581916,2471428.6302039656,True
142,臺東縣大武鄉,尚武村,政通5街6-1號,120.8806,22.3425,大武鄉立托兒所,加羅板部落、古庄部落,100,"水災,震災,土石流,海嘯",張輝煌,089-791721,是,否,否,237701.54872253118,2471484.089636019,True
143,屏東縣琉球鄉,杉福村,復興路97號,120.3692,22.3462,全德國小,商福村、杉福村,200,"水災,震災,土石流,海嘯",黃建榮,8612534,是,否,是,185027.0813038845,2472024.883805764,True
144,屏東縣琉球鄉,中福村,行政路12號,120.3837,22.3501,琉球鄉公所,本福村、中福村、漁福村,150,"水災,震災,土石流,海嘯",陳隆進,08-8612501,是,否,是,186522.4012303718,2472450.544818683,True
145,屏東縣枋寮鄉,保生村,海邊路6號,120.5997,22.3562,老人文康活動中心,隆山村、安樂村、中寮村、保生村,150,水災,潘志信,08-8782012,是,否,是,208772.06885807432,2473050.917091034,True
146,臺東縣大武鄉,大武村,大武街110號,120.9038,22.3564,大武老人會館,大鳥社區11~14鄰,150,"水災,震災,土石流,海嘯",董炎輝,089-791450,是,否,是,240092.18196489723,2473021.4448807407,True
147,臺東縣大武鄉,大武村,大武街21巷1號,120.9064,22.3581,大武鄉多功能綜合活動中心暨避難收容所,大武鄉,300,"水災,震災,土石流,海嘯",高佳珍,089-792275,是,否,是,240360.07797046495,2473209.5072444645,True
148,屏東縣春日鄉,古華村,古華路6鄰2巷46號,120.6281,22.3596,古華社區活動中心,古華村,100,"水災,土石流,海嘯",理事長陸清木,08-8783276,是,否,是,211698.01828258784,2473419.887155798,True
149,臺東縣大武鄉,大武村,大武街56號,120.8975,22.3596,大武村社區活動中心,大鳥社區10鄰,100,"水災,土石流,海嘯",陳立忠,089-791826,是,否,是,239443.5738106526,2473376.190232187,True
150,屏東縣春日鄉,古華村,3巷63號,120.626,22.361,古華國民小學,古華村、士文村,200,"水災,震災,土石流,海嘯",校長 林季福,08-8781040,是,否,是,211482.12203869526,2473575.438816528,True
151,屏東縣枋寮鄉,隆山村,僑德路186號,120.6,22.3631,僑德國小,隆山村、安樂村、中寮村、保生村,320,水災,陳郁程,08-8782096,是,否,否,208804.99610286666,2473814.8445119313,True
152,屏東縣枋寮鄉,枋寮村,德興路197號,120.5908,22.3678,枋寮國小,枋寮村 新龍村,189,"水災,震災",鄭慧華,08-8782034,是,否,否,207858.91390628723,2474337.8033143426,True
153,屏東縣春日鄉,士文村,64-2號,120.6639,22.3685,士文聚會所,士文村,50,"水災,震災,土石流,海嘯",村 長 程中廣,8790009,是,是,是,215387.29176342033,2474396.677950653,True
154,屏東縣春日鄉,士文村,65號,120.6635,22.3689,古華國民小學-士文分校,士文村,60,"水災,震災,土石流,海嘯",主任 戴照吉,08-8790029,是,否,是,215346.19707275036,2474441.0601965287,True
155,屏東縣春日鄉,春日村,春日路13號,120.6243,22.3703,春日社區活動中心,春日村,50,"水災,震災,土石流,海嘯",理事長 余國基,08-8785913,是,否,是,211309.60837305643,2474605.6251823027,True
156,屏東縣春日鄉,春日村,春日路314號,120.627,22.3703,春日國民小學,春日村、古華村、士文村,200,"水災,震災,土石流,海嘯",校長戴文柱,08-8782433,是,否,是,211587.66298239585,2474604.933749188,True
157,屏東縣枋寮鄉,新龍村,義民路3號,120.5908,22.3711,枋寮高中,枋寮村、新龍村,1136,"水災,震災",陳瑞華,08-8782095,是,否,否,207859.9070861708,2474703.1998989703,True
158,臺東縣達仁鄉,新化村,57號,120.856773,22.381551,臺東縣立安朔國小新化分校,新化村,200,,吳昭明,089-792495,否,否,否,235251.42652233664,2475810.124983688,True
159,屏東縣枋寮鄉,人和村,建興路39號,120.6019,22.387,建興國小,天時村、地利村、人和村、新開村、內寮村,162,"水災,震災,海嘯",蔡有福,08-87813562,是,否,否,209007.6741940873,2476460.6822942505,True
162,屏東縣枋寮鄉,東海村,東海路486號,120.5773,22.4013,東海國小,東海村、大庄村,524,"水災,震災,海嘯",許?延,08-8712209,是,否,否,206479.03267420636,2478050.984733362,True
164,屏東縣枋寮鄉,太源村,太源路2-10號,120.593,22.4082,東海國小太源分校,太源村、玉泉村,90,"水災,震災,海嘯",陳惠靜,08-8711785,是,否,否,208097.58471334766,2478810.5385120194,True
165,屏東縣佳冬鄉,賴家村,佳農街17號,120.5584,22.409,國立佳冬高農,燄塭羌園,239,水災,顏宏哲,08-8662726-506,是,否,是,204535.57650133828,2478909.1765605286,True
167,臺東縣大武鄉,大竹村,加津林50號,120.9223,22.4162,加津林活動中心,大竹本部落、富山、加津林,200,"水災,土石流,海嘯",鄭振雄,089-761098,是,否,否,242000.9522914972,2479641.671426714,True
168,屏東縣佳冬鄉,玉光村,文化一路240號,120.5669,22.423,佳冬鄉立幼兒園,羌園、燄溫、塭豐,200,"水災,震災,海嘯",吳佳君,08-8660612,是,是,是,205415.1647458986,2480456.8095995802,True
169,屏東縣春日鄉,七佳村,自強1路92號,120.629,22.4277,力里國民小學,力里村、歸崇村、七佳村,200,"水災,震災,土石流,海嘯",校長 陳玉賢,08-8791020,是,否,是,211809.31151435975,2480960.113313577,True
170,屏東縣春日鄉,七佳村,9鄰自強1路18號,120.6279,22.428,春日鄉立老人文康中心,力里村、歸崇村、七佳村,120,"水災,震災,土石流,海嘯",村長 鄞美瑛,08-878214558,是,否,是,211696.1588388565,2480993.611472046,True
171,屏東縣佳冬鄉,玉光村,大同路1號,120.5668,22.4285,佳冬國中,燄塭羌園,300,"水災,海嘯",林世翔,08-8662041,是,否,是,205406.62684233824,2481065.8391486234,True
172,屏東縣林邊鄉,崎?村,成功路600號,120.4902,22.4298,屏東縣林邊鄉崎峰活動中心,田厝村、水利村、崎峰村,200,"水災,震災,海嘯",陳水村,932782242,是,否,是,197521.81568320235,2481234.543802205,True
173,屏東縣來義鄉,南和村,19鄰289號,120.6379,22.435,來義鄉文物館,南和村,100,"水災,震災,土石流",村長連正三,08-8791069,是,否,是,212727.43434432603,2481766.181621042,True
174,屏東縣來義鄉,南和村,51號,120.6426,22.4364,南和國小,南和村,200,"水災,震災,土石流",村長連正三,08-8791069,是,否,否,213211.59982842195,2481920.0396504374,True
175,屏東縣林邊鄉,仁和村,中山路417號,120.5114,22.4374,屏東縣林邊鄉仁和國民小學,林邊村、仁和村、永樂村、光林村、中林村,200,"水災,震災,海嘯",廖先生,08-8757745,是,是,否,199706.89479862922,2482068.8213524027,True
176,臺東縣達仁鄉,土?村,1鄰22號,120.886914,22.453848,土?天主堂,土?村,50,,黃春香,089-761129,否,否,否,238361.17688994147,2483812.569217905,True
177,臺東縣達仁鄉,土?村,2鄰10 號,120.887664,22.453853,臺東縣立土?國小,土?村,200,,蕭德光,089-761225,否,否,否,238438.367454816,2483813.0648492347,True
178,臺東縣達仁鄉,土?村,1鄰106號,120.885982,22.454897,達仁鄉立土?托兒所,土?村,160,,蕭惠美,089-761893,否,否,否,238265.3435444661,2483928.792914229,True
179,屏東縣東港鎮,大潭里,大潭路93號,120.495771,22.456799,大潭國小,"大潭里,下?里,大鵬里",150,"水災,震災",王舜民,08-8324226,是,是,是,198105.3425766364,2484222.1605078815,True
180,臺東縣大武鄉,大竹村,愛國蒲6鄰92號,120.9227,22.4575,愛國蒲分校,愛國蒲部落,100,"水災,震災,土石流,海嘯",張盛華,089-761007,是,否,是,242044.48615010586,2484214.601464885,True
181,屏東縣東港鎮,船頭里,船頭路25號,120.4629,22.4624,以栗國小,船頭里 南平里 嘉蓮里,300,"水災,震災",吳俊岩,08-8322816,是,是,是,194724.45041765977,2484854.0970951878,True
182,屏東縣東港鎮,東隆里,東隆街21-1號,120.4488,22.4631,東隆宮香客大樓,本鎮各里第一收容所,300,水災,陳小姐,08-8353620,是,否,是,193273.6048704373,2484936.873327414,True
183,臺東縣太麻里鄉,多良村,18鄰大溪251號,120.9414,22.4631,太麻里鄉多良村辦公處,多良村,80,"水災,土石流,海嘯",劉任瑜,089-761077,是,否,否,243969.28408509327,2484833.7924001543,True
184,屏東縣東港鎮,共和里,共和街45號,120.449937,22.463386,東隆國小,共和里、東隆里、興台里、八德里、中興里、朝安里,500,"水災,震災",林玫玲,08-8322064,是,是,是,193390.73723418184,2484968.112165131,True
185,屏東縣來義鄉,望嘉村,114-1號,120.6218,22.4636,望嘉警察派出所,望嘉村,100,"水災,震災,土石流",村長周榮進,08-7981551,是,否,是,211078.15527069801,2484937.0607534386,True
186,屏東縣林邊鄉,竹林村,中興122號,120.5331,22.4642,屏東縣林邊鄉竹林國民小學,竹林村,100,"水災,震災,海嘯",鐘主任,921696540,是,是,是,201949.81393120834,2485029.2216204186,True
187,屏東縣東港鎮,船頭里,船頭路1號,120.4555,22.4652,東港高中,本鎮各里第二收容所,450,"水災,震災,海嘯",陳建銘,08-8322014,是,是,是,193963.9903796234,2485166.8851144807,True
188,屏東縣東港鎮,興東里,長春二路15號,120.4596,22.4694,東光國小,興東里 船頭里,150,"水災,震災,海嘯",林恆斌,08-8324927,是,是,是,194387.61805996223,2485630.420639972,True
189,屏東縣東港鎮,興東里,中正路一段10號,120.4547,22.4707,東港國小,本鎮各里第三收容所,300,"水災,震災,海嘯",黃玉文,08-8322019,是,是,是,193883.8735353125,2485776.1946051307,True
190,屏東縣新埤鄉,箕湖村,民眾路103號,120.611,22.4754,新埤鄉立幼兒園,箕湖村、餉潭村、萬隆村,250,"水災,震災,土石流,海嘯",潘曉珍,08-7981398,是,否,是,209970.06904280328,2486246.48754592,True
191,臺東縣達仁鄉,台?村,10鄰59-1號,120.9077,22.47755,臺東縣台?國民小學,台?村,200,,羅道勳,089-761252,否,否,否,240502.09124582342,2486435.523821544,True
192,臺東縣達仁鄉,台?村,10鄰56號,120.9081,22.47805,台?活動中心,台?村,100,,范國祥,089-761320,否,否,否,240543.28625614982,2486490.861427365,True
193,屏東縣東港鎮,興東里,興東路43-1號,120.4657,22.4784,東興國小,興東里 興農里、興和里,461,"水災,震災,海嘯",黃素卿,08-8310406,是,是,是,195018.93260773856,2486624.732154656,True
194,臺北市中正區,黎明里,公園路29號,120.913,22.4797,北市大附小,光復里、黎明里、建國里,157,震災,邱靜萍,02-23110395#660,是,否,否,241047.6134710144,2486673.258044836,True
195,臺東縣達仁鄉,台?村,8鄰24號,120.913513,22.479837,台?基督教會,台?村,50,,林輝發,089-761487,否,否,否,241100.4104651148,2486688.396924416,True
196,臺東縣達仁鄉,台?村,9鄰啦里吧49號,120.9136,22.48099,啦里吧活動中心,台?村啦里吧部落,100,,溫光林,089-761320,否,否,否,241109.4364600059,2486816.058639478,True
197,屏東縣新埤鄉,新埤村,新華路165號,120.5653,22.4844,新埤國小,打鐵村、南豐村、建功村、新埤村,450,"水災,震災,土石流,海嘯",陳震蔚,08-7971027,是,否,是,205270.15401142405,2487255.962769935,True
198,高雄市林園區,中芸里,中芸路3-100號,120.395311,22.485875,高雄市立中芸國民中學,全區,700,"水災,震災",吳育霖,07-6425223#40,否,否,否,187778.85412592383,2487479.967725284,True
199,高雄市林園區,中芸里,中芸路1號,120.3967,22.4871,中芸國小,全區,500,震災,蔡駿輝,07-6412342#50,是,否,是,187922.32917469175,2487615.0359412357,True
200,屏東縣新園鄉,南龍村,南興路217號,120.4581,22.4877,烏龍國小,烏龍四村,100,"水災,震災",蔡立華,08-8333707#14,是,否,是,194240.57802825727,2487657.3229994383,True
201,屏東縣新園鄉,鹽埔村,鹽洲路379號,120.4408,22.4883,鹽洲國小,鹽洲共和,50,"水災,震災",張芳瑞,08-8322975#14,是,否,是,192460.68307284918,2487730.303460098,True
202,屏東縣南州鄉,溪北村,仁里路93號,120.5111,22.4945,溪北社區活動中心,南安村、同安村,50,"水災,震災",蔡永昌,08-8641070,是,是,是,199696.63104610602,2488391.5142929778,True
203,屏東縣南州鄉,溪北村,仁里路102號,120.5111,22.4957,溪北國小,七塊村、萬華村,95,"水災,震災",陳慶文,08-8642081,是,否,是,199697.06485651075,2488524.3888654737,True
204,屏東縣來義鄉,文樂村,新樂路1號,120.6243,22.4999,文樂活動中心,文樂村,50,"水災,震災,土石流",村長陸旨成,08-7982350,是,否,是,211345.51980513183,2488955.8204978053,True
205,高雄市林園區,頂厝里,校前路1號,120.378585,22.504297,高雄市林園區港埔國民小學,全區,690,"水災,震災",張二文,07-2245398,是,否,是,186066.20377083903,2489526.8898249315,True
206,高雄市林園區,廣應里,王公二路100號,120.388254,22.504698,高雄市林園區王公國民小學,全區,1100,"水災,震災,土石流,海嘯",蔡玉董,07-6420503#40,否,否,是,187061.19986474674,2489567.195038229,True
207,高雄市林園區,林園里,忠孝西路20號,120.394303,22.506778,高雄市林園區林園國民小學,全區,2000,"水災,震災,土石流,海嘯",董原利,6412290,是,否,是,187684.4930408909,2489794.983524921,True
208,高雄市林園區,林園里,林園北路191號,120.3945,22.5087,林園區長青文康活動中心,全區,260,"水災,震災,土石流,海嘯",張簡朝元,6412511#303,是,否,是,187705.62240663223,2490007.7255652943,True
209,屏東縣新園鄉,港西村,中和路101號,120.4556,22.5087,港西國小,港西五房,30,"水災,震災",許湘渝,08-8681644#14,是,否,是,193991.78686068705,2489983.5761355436,True
210,屏東縣來義鄉,義林村,來新路21號,120.5825,22.5087,來義鄉新來義部落多功能活動中心,來義村、義林村、丹林村、古樓村、文樂村、望嘉村、南和村,500,"水災,震災,土石流",陳世凱,08-7850251-127,是,否,否,207047.52785256377,2489941.6206924906,True
211,屏東縣潮州鎮,興美里,興美路24號,120.534672,22.512958,潮南國小,興美里、樣子里,1126,"水災,震災",黃瓘茗,08-7882312,是,否,否,202128.36795301203,2490427.6165378545,True
212,屏東縣崁頂鄉,園寮村,田寮路1-15號,120.5184,22.5134,南榮國中,園寮村,200,"水災,震災,土石流,海嘯",張載陽,88631112,是,否,否,200454.48042954598,2490481.855600047,True
213,屏東縣崁頂鄉,崁頂村,中正路119號,120.5118,22.5141,崁頂國小,崁頂村、北勢村、越溪村,200,"水災,震災,土石流,海嘯",顏乾明,08-8631959,是,否,是,199775.73410493563,2490561.56630165,True
214,高雄市小港區,龍鳳里,鳳鳴路191號,120.357564,22.515082,高雄市小港區鳳鳴國民小學,鳳鳴、龍鳳,200,"水災,震災,土石流,海嘯",陳慶彰,8714561＊130,否,否,否,183908.5377934702,2490730.255173474,True
215,屏東縣崁頂鄉,崁頂村,興農路29-12號,120.5069,22.5152,崁頂老人文康中心,崁頂鄉、港東村,150,"水災,震災,土石流,海嘯",王陳素枝,08-8630164,是,否,是,199272.0322648328,2490685.021356745,True
216,高雄市林園區,林園里,林園北路481號,120.395661,22.516726,高雄市立林園高級中學,全區,2600,"水災,震災,土石流,海嘯",陳怡仁,07-6412059#400,是,否,是,187828.6596021782,2490895.9662818015,True
217,屏東縣來義鄉,丹林村,丹林路25-1號,120.6348,22.5174,丹林活動中心,丹林村,50,"水災,震災,土石流",村長沈義松,08-7850255,是,否,是,212430.5675561884,2490890.8826928334,True
218,高雄市小港區,鳳興里,龍鳳路559號,120.348385,22.52185,高雄市小港區鳳林國民中學,鳳興、鳳森,50,"水災,震災,土石流,海嘯",田續鴻,8711130＊31,否,否,否,182967.47147390453,2491483.7687230106,True
219,屏東縣潮州鎮,九塊里,復興路66號,120.5609105,22.52309297,潮東國小,九塊裡、崙東里、彭城里,85,水災,潘山榮,08-7871189,是,否,否,204831.04330206633,2491541.689579915,True
220,屏東縣新園鄉,新園村,媽祖路49號,120.4519,22.5241,新園國小,新園新東,100,"水災,震災",許天瑞,08-8681113#14,是,否,是,193617.36736445088,2491690.2050308054,True
221,臺東縣金峰鄉,歷坵村,"1鄰12號No.12,Liqiu,Jinfeng Township,Taitung County 964,TaiwanR.O.C.",120.926439,22.526384,歷坵活動中心 Liqiu Activity Center,壢坵村,100,水災,邱江南,089-771439,否,否,否,242433.04055703917,2491841.6550723678,True
222,屏東縣來義鄉,古樓村,育英路2號,120.6258,22.5275,古樓國小,古樓村,200,"水災,震災,土石流",村長連瑞禎,08-7850318,是,否,是,211507.49385500955,2492011.5233725756,True
223,高雄市林園區,中厝里,金潭路40號,120.396078,22.528055,高雄市林園區金潭國民小學,全區,260,"水災,震災",蘇劍煌,07-6412332#40,是,否,否,187876.62462930306,2492150.2610472874,True
224,臺東縣太麻里鄉,金崙村,16鄰40號,120.937667,22.530918,金崙溫泉長老教會,金崙村上溫泉,20,"水災,土石流,海嘯",陳文龍,089-771305,是,否,否,243588.234752311,2492343.164042141,True
225,臺東縣金峰鄉,賓茂村,"68號No.68,Binmao,Jinfeng Township,Taitung County 964,TaiwanR.O.C.",120.95583,22.532403,賓茂國小 Binmao Elementary School,賓茂村,100,,朱慧清,089-771007,否,否,否,245456.58602245123,2492506.9274759567,True
226,臺東縣金峰鄉,賓茂村,"1鄰3-2號No.3-2,Binmao,Jinfeng Township,Taitung County 964,TaiwanR.O.C.",120.961712,22.532592,賓茂活動中心 Binmao Activity Center,賓茂村,100,"水災,震災",高永輝,089-771393,是,否,是,246061.6256595672,2492527.6879420225,True
227,臺東縣太麻里鄉,金崙村,太麻里鄉6鄰金崙283號,120.964363,22.533379,金崙活動中心,金崙村,80,"水災,土石流,海嘯",許加和,089-781305,否,否,否,246334.33320845076,2492614.762266126,True
228,屏東縣潮州鎮,光春里,光春路290號,120.539763,22.534662,光春國中,光春里、富春里、永春里,600,"水災,震災",蔡玉鳳,08-7887038#31,是,否,否,202659.51883559363,2492829.2562243696,True
229,屏東縣崁頂鄉,力社村,力社路36號,120.5092,22.5388,力社國小,力社村、洲子村、圍內村,200,"水災,震災,土石流,海嘯",林怡均,08-8631544,是,否,是,199517.22662825722,2493297.454087884,True
230,高雄市大寮區,義仁里,鳳林一路48號,120.403252,22.539227,義仁里社區活動中心,義仁里,100,"水災,震災,土石流,海嘯",陳秀勤,6424162,否,否,是,188619.54624005378,2493384.3821876114,True
231,屏東縣潮州鎮,光春里,志成路201號,120.536872,22.540379,光春國小,光春里、八爺里、永春里、彭城里,550,"水災,震災",林淑瑛,08-7896550#14,是,否,否,202364.1041203782,2493463.2128131324,True
232,高雄市大寮區,昭明里,鳳林一路300巷80號,120.408514,22.54239,高雄市大寮區昭明國小,昭明里、義仁里、新厝里,350,"水災,震災,土石流,海嘯",羅婉婷,6426428轉940,否,否,是,189162.1861605825,2493732.472182504,True
233,屏東縣新園鄉,仙吉村,仙吉路148號,120.4615,22.5438,新園鄉公所,全鄉,30,"水災,震災,海嘯",方冠丁,08-8681385#13,是,否,是,194612.79017758003,2493867.997704033,True
234,屏東縣新園鄉,仙吉村,仙吉路91號,120.4611,22.5443,仙吉國小,全鄉,100,"水災,震災,海嘯",郭哲志,08-8681087#14,是,否,是,194571.8471241532,2493923.5110613033,True
235,屏東縣潮州鎮,泗林里,開元路2巷1號,120.569267,22.544592,四林國小,泗林里、崙東里、四春里,50,"水災,震災",蔡世屏,08-7882174#14,是,否,是,205697.54319559553,2493919.7495940537,True
236,屏東縣新園鄉,仙吉村,仙吉路111號,120.461,22.5452,新園國中,全鄉,300,"水災,震災",周能瑞,08-8681020#14,是,否,是,194561.92093932405,2494023.2052514595,True
237,屏東縣潮州鎮,光華里,南進路2號,120.543657,22.547268,光華國小,光華里、潮州里,240,"水災,震災",陳俊文,08-7882105#14,是,否,否,203064.32790590113,2494223.878970299,True
238,屏東縣潮州鎮,三星里,三星路39-2號,120.550815,22.547719,鎮立幼兒園,三星里、九塊里,300,水災,鍾秋梅,08-7886964,是,是,是,203800.70160247557,2494271.5869275774,True
239,屏東縣潮州鎮,同榮里,育英路31號,120.541139,22.548406,潮州國小,同榮里、新榮里、新生里,285,水災,廖翌妙,08-7882770#14,否,是,否,202805.73027478345,2494350.68193146,True
240,屏東縣萬巒鄉,新置村,中興路27號,120.6123,22.5491,佳佐國小中興分校,新置村,60,"水災,震災,土石流",鄒美華,08-7832300,是,否,是,210124.9897106915,2494406.793001173,True
241,屏東縣新園鄉,瓦?村,四環路3號,120.4747,22.5523,瓦?國小,瓦?,50,"水災,震災,海嘯",郭聰智,08-8684050#14,是,否,是,195973.80748909045,2494804.3700523437,True
242,屏東縣泰武鄉,平和村,1鄰1號,120.6293,22.5527,平和活動中心,平和村,200,"水災,震災,土石流",孫錦文,915605765,是,否,是,211874.4494059363,2494800.9774816995,True
243,屏東縣潮州鎮,三共里,文化路66號,120.542947,22.554008,潮州國中,三星里、三共里,250,"水災,震災,土石流",葉文雄,08-7882401#41,是,否,是,202993.58525142455,2494970.41702775,True
244,高雄市大寮區,會結里,會結路14-3號,120.424982,22.554827,會結里社區活動中心,會結里,100,"水災,震災,土石流,海嘯",黃美華,7870331,否,否,是,190861.3579381684,2495103.018493261,True
246,屏東縣潮州鎮,三和里,華嚴街1號,120.538038,22.556803,潮和國小,三和里、蓬萊里、五魁里,630,"水災,震災",陳榮華,08-7804052,是,否,否,202489.66000298742,2495281.458584151,True
247,屏東縣潮州鎮,三共里,北門路25號,120.547724,22.557031,潮昇國小,三共里,875,"水災,震災",陳育彬,08-7880419,是,否,否,203485.905006208,2495303.6560682734,True
248,高雄市大寮區,新厝里,新三街50號,120.40918,22.560361,新厝里社區活動中心,新厝里,20,"水災,震災,土石流,海嘯",張簡龍星,7880698,否,否,是,189238.55978007312,2495722.1461707293,True
249,高雄市小港區,港正里,平和路1號,120.336089,22.56103,高雄市小港區小港國民小學,小港、港正,300,"水災,震災,土石流,海嘯",李宗仁,8215923＊311,否,否,否,181721.79782771465,2495827.8056706046,True
250,屏東縣萬巒鄉,鹿寮村,永康路31號,120.5629,22.5614,志成佛寺,鹿寮村,200,水災,見引法師,08-7811510,是,否,否,205048.11078946933,2495782.784603966,True
251,高雄市小港區,山明里,鳳陽街2號,120.370393,22.561551,高雄市小港區鳳陽國民小學,大坪、坪頂,600,"水災,震災,土石流,海嘯",簡佩玲,8010865＊31,否,否,否,185250.050477169,2495870.216842313,True
252,高雄市大寮區,潮寮里,潮龍路151號,120.430298,22.562091,潮寮老人活動中心,潮寮里,35,"水災,震災,土石流,海嘯",吳致慧,7877291,否,否,是,191411.17154414914,2495905.2712804656,True
253,屏東縣萬丹鄉,新庄村,屏東縣萬丹鄉新庄村新鐘路410號,120.4803,22.5622,新庄國小,新鐘村、香社村。,60,"震災,土石流,海嘯",陳俊華,08-7772230,是,否,是,196553.5834687563,2495898.582869775,True
254,高雄市大寮區,潮寮里,潮寮路51-9號,120.425175,22.563415,高雄市立潮寮國民中學,過溪里、會結里,60,"水災,震災,土石流,海嘯,核子事故",江振瑞,7879544轉32,否,否,是,190884.86803209165,2496053.898026535,True
255,高雄市小港區,二苓里,立群路6號,120.3533,22.5638,高雄市小港區二苓國民小學,二苓、三苓,1000,"水災,震災,土石流,海嘯",?棟隆,801683731,是,否,是,183493.20093822037,2496126.7653692956,True
256,高雄市小港區,二苓里,學府路117號,120.357413,22.565249,高雄市立小港高級中學,大苓、店鎮、鳳宮,100,"水災,震災,海嘯",陳佩菁,8062627＊301,否,否,否,183916.88612321453,2496285.3895764146,True
257,高雄市大寮區,潮寮里,潮寮路61號,120.425144,22.565716,高雄市大寮區潮寮國小,潮寮里過溪里,240,"水災,震災,土石流,海嘯",魏恒杰,7875075轉30,否,否,是,190882.66087927352,2496308.7019955055,True
258,高雄市小港區,山明里,松和路40號,120.371763,22.566216,國立高雄餐旅大學附屬餐旅高級中等學校,松山、高松,200,"水災,震災,土石流,海嘯",林建志,8060705#31,否,否,否,185393.12127474364,2496386.1864074674,True
259,高雄市小港區,六苓里,漢民路500號,120.35926,22.566473,高雄市小港區漢民國民小學,泰山、宏亮,200,"水災,震災,土石流,海嘯",高泰安,8036569＊731,否,否,否,184107.4173707526,2496420.108993887,True
260,高雄市小港區,順苓里,漢民路352號,120.356421,22.56665,高雄市立中山國民中學,六苓、正苓、順苓,700,"水災,震災,土石流,海嘯",劉建宏,8036006,否,否,否,183815.5353542515,2496440.964352979,True
261,高雄市小港區,港南里,平和南路185號,120.338056,22.566732,高雄市立小港國民中學,港南、港口、港墘,720,"水災,震災,海嘯",王文霖,8215929＊100,否,否,否,181926.89438568626,2496458.302240481,True
262,高雄市小港區,山明里,華仁街1號,120.3657,22.5677,高雄市小港區華山國民小學,山明、松金,901,"水災,震災,土石流,海嘯",黃志中,8062280731,是,否,是,184770.292302317,2496553.14873812,True
263,高雄市小港區,港南里,平和南路300號,120.3379,22.5681,高雄市小港區港和國民小學,港興、港后、港明,250,"水災,震災,土石流,海嘯",顏志昌,8131506333,是,否,是,181911.52294319327,2496609.8550118515,True
264,屏東縣泰武鄉,佳興村,1鄰1號,120.6631,22.5703,佳興活動中心,佳興村,100,"水災,震災,土石流",楊信道,978637308,是,否,是,215355.11980607457,2496741.561034964,True
265,屏東縣萬巒鄉,佳和村,佳興路59號,120.5956,22.5712,佳佐國小,佳和村、佳佐村,100,水災,鄒美華,08-7832018,是,否,否,208413.9985926543,2496858.4523467566,True
266,屏東縣萬巒鄉,萬和村,中正路36號,120.5678,22.5725,萬巒鄉公所展覽廳,萬巒村,100,水災,林碧乾,08-7812460,是,否,否,205555.59760766898,2497010.4115910586,True
267,高雄市前鎮區,草衙里,后平路135號,120.320909,22.572651,高雄市前鎮區佛公國民小學,全區綜合運用,655,"水災,震災,土石流,海嘯",校長蔡進元,07-8229801#101,否,否,否,180166.45216008957,2497121.647810096,True
268,屏東縣萬巒鄉,萬全村,褒忠路28號,120.5723,22.5727,萬巒國小,萬全村、萬和村,100,"水災,震災",黃于真,08-7811627,是,否,否,206018.41549133137,2497031.224467119,True
269,屏東縣竹田鄉,泗洲村,洲中路40號,120.5251,22.5756,大明國小,泗洲村、鳳明村、大湖村,200,"水災,震災",陳志清,08-7887780,是,否,是,201165.65451377525,2497367.016412494,True
270,高雄市大寮區,過溪里,過溪路130號,120.418885,22.576183,過溪里社區活動中心,過溪里,150,"水災,震災,土石流,海嘯",邱佑龍,7873668,否,否,是,190243.49113299965,2497470.2155074244,True
271,屏東縣泰武鄉,武潭村,潭北巷51號,120.6361,22.578,武潭活動中心,武潭村,200,"水災,震災,土石流",劉安生,911917443,是,否,是,212580.6465973878,2497600.688788368,True
272,屏東縣萬巒鄉,新厝村,富山路1號,120.6297,22.5802,西方道堂,新厝村,300,水災,林榮芳,08-7832248,是,否,是,211923.1411638369,2497845.910948925,True
273,高雄市前鎮區,明正里,明道路2號,120.326581,22.580243,高雄市前鎮區明正國民小學,全區綜合運用,345,"水災,震災,土石流,海嘯",吳志偉,07-8110965#310,否,否,否,180753.53855011746,2497959.6860868745,True
274,高雄市小港區,孔宅里,明義街2號,120.368282,22.582027,高雄市立明義國民中學,孔宅、合作,1000,"水災,震災,海嘯",楊世傳,7911296＊31,否,否,否,185042.5410150722,2498138.477565704,True
275,高雄市大寮區,拷潭里,拷潭路126-1號,120.385461,22.582377,清山寺,拷潭里,80,"水災,震災,土石流,海嘯",邱高統,8901608,否,否,是,186809.20879627616,2498169.8558668857,True
276,屏東縣萬丹鄉,寶厝村,屏東縣萬丹鄉寶厝村萬新路1497號,120.4887,22.5826,萬丹國小,興安村、興全村、水仙村、甘棠村。,150,"水災,震災,土石流,海嘯",張庭炎,08-7772014,是,否,否,197425.2013661738,2498154.4953309917,True
277,屏東縣竹田鄉,竹田村,公正路35號,120.544,22.5828,竹田國小,竹田村、二崙村、美崙村、竹南村、糶糴村,200,"水災,震災",余鳳庭,08-7710834,是,否,是,203111.62263806205,2498158.208043853,True
278,高雄市小港區,桂林里,桂陽路390號,120.350425,22.583128,高雄市小港區桂林國民小學,桂林、中厝,1255,"水災,震災,土石流,海嘯",洪志明,7910766＊310,否,否,否,183206.84086798452,2498268.278303673,True
279,高雄市前鎮區,明道里,新衙路17號,120.321031,22.583367,高雄市立前鎮國民中學,草衙、平等、明孝、平昌、明義、明禮、明正、信義、仁愛、信德、德昌、明道,1200,"水災,震災,土石流,海嘯",總務組,8217677,是,否,是,180184.39739817719,2498308.2012816817,True
280,高雄市小港區,孔宅里,明義街77號,120.3678,22.5834,高雄市小港區明義國民小學,廈莊,200,"水災,震災,土石流,海嘯",夏紹彰,7916119330,是,否,是,184993.62136566814,2498290.7224421413,True
281,屏東縣竹田鄉,竹田村,中正路123號,120.544,22.5847,竹田鄉公所,南勢村、履豐村、頭崙村,60,水災,傅民雄,08-7711550,是,否,是,203112.2656782482,2498368.5943763303,True
282,高雄市大寮區,拷潭里,拷潭路163-1號,120.380306,22.584752,富翔天廈,拷潭里,70,"水災,震災,土石流,海嘯",翁芙蓉,973806883,否,否,是,186280.2168206026,2498435.036339259,True
283,高雄市前鎮區,興化里,新生路200號,120.308702,22.585437,高雄市前鎮區前鎮國民小學,全區綜合運用,473,"水災,震災,土石流,海嘯",劉綏慶,07-8212448#831,否,否,否,178917.67568291735,2498543.24048018,True
284,高雄市前鎮區,興仁里,德昌路345號,120.3139,22.5863,高雄市立興仁國民中學,興化、興仁、鎮陽、前鎮、興邦、鎮東、鎮中、鎮榮、鎮北、鎮昌、鎮海等11里,945,"水災,震災,土石流,海嘯",徐東宏,8215176轉179,是,否,是,179452.61480805636,2498636.3353044866,True
285,高雄市前鎮區,平等里,鎮中路132號,120.32001,22.586862,高雄市立前鎮高級中學,全區綜合運用,2236,"水災,震災,土石流,海嘯",總務主任謝遠敦,07-8226841#301,否,否,否,180081.17272877455,2498695.6902830233,True
286,臺東縣太麻里鄉,香蘭村,舊香蘭四鄰28號,120.993452,22.587759,香蘭國小,香蘭村,80,"水災,震災,土石流,海嘯",戴雲萍,089-781304,否,否,否,249326.72849921658,2498635.6657285034,True
287,高雄市旗津區,南汕里,中洲二路203號,120.2877,22.5879,高雄市旗津區大汕國民小學,南汕、上竹,250,"水災,震災,土石流,海嘯",黃惠銘,07-5712434轉31,是,否,是,176759.3814934298,2498826.136319771,True
288,高雄市旗津區,南汕里,中洲二路207號,120.286,22.5885,高雄市立旗津國民中學,實踐、北汕、上竹里,600,"水災,震災,土石流,海嘯",蔡宗憲,07-5714595轉31,是,否,是,176584.8945033885,2498893.4120699856,True
289,屏東縣萬巒鄉,泗溝村,永平路53-1號,120.58,22.5885,萬巒鄉立幼兒園泗溝分班,泗溝村、硫黃村,60,"水災,震災",林碧乾,08-7812460,是,否,否,206815.16268229435,2498778.497767098,True
290,屏東縣萬丹鄉,萬後村,屏東縣萬丹鄉和平西路157號,120.4849,22.589,圖書館,甘棠村,40,"水災,震災,土石流,海嘯",莊碧雲,08-7771627,是,否,是,197036.90312426622,2498864.513716407,True
291,屏東縣萬丹鄉,萬後村,屏東縣萬丹鄉和平西路155號,120.485,22.5894,萬丹鄉行政中心,香社村,100,"水災,土石流,海嘯",黃清連,08-7772111,是,否,是,197047.33835046005,2498908.7703747144,True
292,高雄市旗津區,南汕里,旗津三路2號5樓,120.284774,22.589974,高雄市旗津區公所5樓大禮堂,南汕、北汕、上竹里,250,"水災,震災,土石流,海嘯",詹正忠,07-5712500309,否,否,是,176459.6124362353,2499057.237017223,True
293,高雄市大寮區,內坑里,內坑路148號,120.381144,22.590008,佛聖宮,內坑里,200,"水災,震災,土石流,海嘯",陳正寵,932799319,否,否,是,186368.80081993857,2499016.6849487848,True
294,高雄市鳳山區,過埤里,過埤路176號,120.362405,22.590382,高雄市鳳山區過埤國民小學,過埤、保安里,393,"水災,震災,土石流,海嘯",郭淑娥,7920257#740,是,否,是,184442.16538112442,2499066.2145934002,True
295,高雄市鳳山區,福誠里,五甲三路176號,120.323885,22.590487,高雄市立福誠高級中學,福誠、福祥、五福里,1139,"水災,震災,土石流,海嘯",朱建華,8224646#400,否,否,是,180481.44578579988,2499095.285124881,True
296,高雄市前鎮區,鎮海里,樹人路261號,120.317983,22.590548,高雄市前鎮區鎮昌國民小學,全區綜合運用,1200,"水災,震災,土石流,海嘯",事務組鄭如伶,07-8116575#32,否,否,否,179874.60920029838,2499104.802921062,True
297,屏東縣萬巒鄉,五溝村,西盛路89號,120.594,22.5908,五溝國小,五溝村,30,震災,羅世杰,08-7832285,是,否,是,208255.36788637092,2499029.1892456794,True
298,高雄市大寮區,大寮里,大寮路740號,120.416445,22.590861,高雄市大寮區大寮國民小學,大寮里、上寮里,420,"水災,震災,土石流,海嘯,核子事故",陳奇皇,7881062轉40,否,否,是,189998.93523432655,2499096.5076330956,True
299,屏東縣泰武鄉,佳平村,佳平巷12號,120.628948,22.591406,佳平活動中心,佳平村,100,"水災,震災,土石流",潘明良村長,928724018,是,否,是,211848.90073678753,2499086.9303744393,True
300,高雄市大寮區,大寮里,大寮路781號,120.416643,22.591471,大寮里社區活動中心,大寮里,150,"水災,震災,土石流,海嘯",陳忠慶,7881231,否,否,是,190019.55827248562,2499163.9741033735,True
301,屏東縣泰武鄉,佳平村,5鄰120號,120.6333,22.5915,泰武國中,佳平村或全鄉,300,"水災,震災,土石流",校長謝惠如,08-7831025,是,否,是,212296.39784835494,2499096.2321684835,True
302,高雄市大寮區,內坑里,仁德路16巷31弄12號,120.396834,22.591949,澳洲特區,內坑里,100,"水災,震災,土石流,海嘯",丁漢淇,7878390,否,否,是,187982.96946902073,2499225.0059277057,True
303,高雄市大寮區,內坑里,仁德路10號之1,120.399701,22.591993,荷蘭町,內坑里,200,"水災,震災,土石流,海嘯",鄭詩韻,7881811,否,否,是,188277.77932873688,2499228.6887156027,True
304,屏東縣萬丹鄉,灣內村,屏東縣萬丹鄉崙頂村崙頂路860號,120.4615,22.5929,興華國小,灣內村、後村村、崙頂村、田厝村。,400,"土石流,海嘯",李再和,08-7061481,是,否,是,194632.4017674132,2499304.861367832,True
305,高雄市前鎮區,,翠亨北路392號,120.3153,22.5941,高雄市政府社會局無障礙之家,設籍本市領有身心障礙手冊之18歲至64歲重度、極重度智障者或含有智障之多重障礙者（需進行異地安置使視情況開設）,3,"水災,震災,土石流,海嘯",陳桂英主任,07-8151500分機107,是,否,是,179600.53806915993,2499499.390165363,True
306,高雄市鳳山區,南成里,南和街101號,120.335487,22.594316,高雄市鳳山區南成國民小學,南成、南和、富榮、二甲里,1484,"水災,震災,土石流,海嘯",簡伯陞,8215354#40,是,否,是,181676.2979993774,2499513.9185094875,True
307,高雄市鳳山區,鎮南里,五甲二路730巷6號,120.3283,22.5945,龍成宮,鎮南里,100,"水災,震災,土石流,海嘯",黃振塊,07-8312677,是,否,是,180937.41502900765,2499537.6041370817,True
308,高雄市大寮區,內坑里,內坑路108-67號,120.388157,22.594653,米蘭特區,內坑里,80,"水災,震災,土石流,海嘯",蔡虹華,939307219,否,否,是,187092.01203527625,2499528.058907342,True
309,屏東縣萬丹鄉,四維村,屏東縣萬丹鄉四維村四維東路567號,120.49,22.595,四維國小,四維村、萬全村、萬生村、竹林村。,50,"水災,震災",許美珠,08-7761987,是,否,是,197563.57204036883,2499527.09405114,True
310,屏東縣內埔鄉,美和村,學人路55號,120.5566,22.595,僑智國小,美和村,120,"水災,震災,土石流,海嘯",宋婷慧,08-7792544-14,是,是,否,204411.25692700985,2499505.203808283,True
311,屏東縣萬巒鄉,萬金村,萬興路24號,120.6112,22.5951,萬金天主教堂,萬金村、赤山村、成德村,250,水災,徐清賢,08-7832005,是,否,否,210025.1206843485,2499500.6122197397,True
312,臺東縣金峰鄉,嘉蘭村,"3鄰132號No.132,Jialan,Jinfeng Township,Taitung County 964,TaiwanR.O.C.",120.961523,22.595308,嘉蘭國小 Jialan Elementary School,嘉蘭村,100,水災,洪琬莉,089-751224,是,否,否,246043.97421301628,2499472.0414573634,True
313,高雄市鳳山區,二甲里,鳳育路63號,120.340798,22.595332,高雄市鳳山區鳳翔國民小學,二甲、保安、南成里,3106,"水災,震災,土石流,海嘯",林裕斌,7422751#40,是,否,是,182222.87734380746,2499623.999030769,True
314,高雄市鳳山區,保安里,保義街100號,120.348197,22.59641,高雄市立鳳翔國民中學,保安里,385,,陳榮輝,07-7929337#31,否,否,否,182984.16498421505,2499740.024293966,True
315,屏東縣萬丹鄉,四維村,屏東縣萬丹鄉萬丹路2段5號,120.4881,22.5966,萬丹國中,萬惠村、寶厝村、萬安村。,500,"水災,震災,土石流,海嘯",鍾文欽,08-7772020,是,否,是,197368.8251651783,2499704.93215899,True
316,臺東縣金峰鄉,嘉蘭村,"4鄰嘉蘭219號No.9,Jialan,Jinfeng Township,Taitung County 964,TaiwanR.O.C.",120.959985,22.596696,嘉蘭村活動中心 Jialan Activity Center,嘉蘭村,100,"水災,土石流",李吳道義,089-751069,是,是,否,245885.88544594217,2499625.7726316727,True
317,高雄市鳳山區,福誠里,忠誠路145號,120.325055,22.596813,高雄市鳳山區福誠國民小學,福誠、福祥、五福、福興里,1267,"水災,震災,土石流,海嘯",安翊之,8120152#40,是,否,是,180604.92029779876,2499795.23559118,True
318,高雄市鳳山區,龍成里,龍成路111號,120.328691,22.598112,高雄市立五甲國民中學,鎮南、龍成、善美、富甲里,1178,"水災,震災,土石流,海嘯",崔偉凡,8319676,是,否,是,180979.41871909797,2499937.38970341,True
319,高雄市鳳山區,中崙里,中崙四路25號,120.350798,22.599431,高雄市鳳山區中崙國民小學,中崙、中民、中榮里,3054,"水災,震災",許芳銘,07-7533244,否,否,否,183253.05432948837,2500073.380167254,True
320,高雄市大寮區,會社里,鳳林三路315之22號,120.397972,22.600592,大發公有市場3樓,以全區為對象以會社里為優先收容安置對象,120,"水災,震災,土石流,海嘯",拾景山,7866866,否,否,是,188103.84480889226,2500181.586955966,True
321,高雄市前鎮區,瑞祥里,班超路20號,120.326798,22.600692,高雄市前鎮區瑞祥國民小學,全區綜合運用,1636,"水災,震災,土石流,海嘯",王淑芬,07-7221212#731,否,否,否,180786.07373922574,2500223.957895921,True
322,高雄市旗津區,上竹里,旗津三路275號,120.2764,22.6008,高雄市旗津區中洲國民小學,上竹、中洲、安順、中興,600,"水災,震災,土石流,海嘯",林義良,07-5712225轉731,是,否,是,175604.37288284604,2500260.1921175704,True
323,高雄市前鎮區,瑞南里,班超路63號,120.324758,22.602208,高雄市立瑞祥高級中學,全區綜合運用,1000,"水災,震災,土石流,海嘯",謝日榮,07-8152271#310,否,否,否,180577.0886816823,2500392.777482943,True
324,高雄市大寮區,上寮里,上寮路208之25號,120.422136,22.602808,高雄市立大寮幼兒園,上寮里,150,"水災,震災,土石流,海嘯",李麗華,7877409,否,否,是,190589.2243167524,2500417.136519383,True
325,高雄市大寮區,永芳里,進學路150號,120.39266,22.602926,高雄市立大寮國民中學,永芳里,150,"水災,震災,土石流,海嘯,核子事故",鍾汪宏,7818038,否,否,是,187558.74194471102,2500442.2502344176,True
326,高雄市鳳山區,中榮里,中崙二路487號,120.353555,22.603304,高雄市立中崙國民中學,中榮、中民、誠義里,469,"水災,震災,土石流,海嘯",江文雄,7538686#173,是,否,是,183538.38030518818,2500501.015049454,True
327,高雄市大寮區,三隆里,正隆街45號,120.406342,22.60349,三隆里社區活動中心,三隆里,40,"水災,震災,土石流,海嘯",林新全,7816192,否,否,是,188965.68745752022,2500499.036254058,True
328,高雄市鳳山區,正義里,南昌街55號,120.340127,22.603997,高雄市鳳山區正義國民小學,正義、一甲、老爺、善美里,1025,"水災,震災,土石流,海嘯",張秋麗,7714440#40,是,否,是,182158.1318079944,2500583.802066547,True
329,臺東縣金峰鄉,正興村,"2鄰28號No.28,Zhengxing,Jinfeng Township,Taitung County 964,TaiwanR.O.C.",120.996484,22.604086,正興村活動中心Zhengxing Activity Center,正興村,100,"水災,震災,土石流",陳進興,089-782497,是,否,是,249638.52420941752,2500443.500278864,True
330,屏東縣泰武鄉,泰武村,大武山一街30號,120.6117,22.6046,泰武活動中心,泰武村,300,"水災,震災,土石流",池萬地,921317840,是,否,否,210079.2689454219,2500552.4055286213,True
331,高雄市前鎮區,建隆里,中山三路43號,120.3083,22.6051,高雄市立獅甲國民中學,忠純、忠誠、建隆、良和、西甲、西山、盛興、振興、盛豐、興中、民權,1200,"水災,震災,土石流,海嘯",陳正憲,8215176轉179,是,否,是,178886.43886221334,2500720.7759384834,True
332,屏東縣竹田鄉,美崙村,龍崗路130號,120.5476216,22.60513,竹田鄉立幼兒園,"西勢村,福田村,永豐村,美崙村",200,"水災,震災",宋秋菊,08-7791130,是,否,是,203491.52119292616,2500629.6696836404,True
333,高雄市大寮區,永芳里,鳳林三路499號,120.395195,22.605277,高雄市大寮區永芳國民小學,永芳里、三隆里、會社里、內坑里、拷潭里,600,"水災,震災,土石流,海嘯,核子事故",顏雅莉,7812814轉40,否,否,是,187820.431085029,2500701.5210753134,True
334,高雄市前鎮區,瑞華里,瑞隆路100號,120.337,22.6061,高雄市前鎮區瑞豐國民小學,瑞南、瑞和、瑞文、瑞豐、瑞平、瑞岡、瑞華、瑞祥、瑞隆、瑞興、瑞昌、瑞東、瑞北、瑞誠、瑞西等15里,1781,"水災,震災,土石流,海嘯",洪碧珠,8215176轉179,是,否,是,181837.66905819828,2500818.0995585048,True
335,高雄市鳳山區,,凱旋路1號,120.3623,22.6077,金湯營區,如需進行異地收容安置方才啟用，視情況調度收容對象,400,"水災,震災,土石流,海嘯",社會局救助科-林宗德股長,3368333轉2063,是,否,是,184439.57113272985,2500983.9216172476,True
336,高雄市鳳山區,,凱旋路1號,120.3623,22.6077,中正營區,如需進行異地收容安置時方才啟用，視情況調度收容對象,500,"水災,震災,土石流,海嘯",社會局救助科-林宗德股長,3368333轉2063,是,否,是,184439.57113272985,2500983.9216172476,True
337,高雄市大寮區,山頂里,山頂路211號,120.388806,22.607807,高雄市大寮區山頂國民小學,山頂里、光武里,200,"水災,震災,土石流,海嘯,核子事故",吳浚碩,7828205轉40,否,否,是,187164.7138051554,2500984.3522743843,True
338,高雄市前鎮區,西山里,民權二路331號,120.311425,22.608203,高雄市前鎮區復興國民小學,全區綜合運用,800,"水災,震災,土石流,海嘯",李牧桓,07-3351784#731,否,否,否,179209.31801967387,2501062.8932743673,True
339,高雄市前鎮區,竹內里,育樂路61號,120.322489,22.608234,高雄市前鎮區樂群國民小學,全區綜合調度,300,"水災,震災,土石流,海嘯",總務組,7225846,是,否,是,180346.8338407799,2501061.1127029345,True
340,高雄市大寮區,山頂里,山頂路178號,120.388518,22.608247,山頂里社區活動中心,山頂里,250,"水災,震災,土石流,海嘯",楊秀花,7838787,否,否,是,187135.30436812877,2501033.1957936115,True
341,高雄市前鎮區,民權里,沱江街200號,120.314444,22.608482,高雄市前鎮區民權國民小學,全區綜合運用,1568,"水災,震災,土石流,海嘯",方季堂,07-5367177#310,否,否,否,179519.84654046647,2501092.3569001784,True
342,高雄市旗津區,慈愛里,中洲三路623號,120.2715,22.609,高雄市旗津區旗津國民小學,旗下、永安、振興、慈愛、中華、復興里,120,"水災,震災,土石流,海嘯",黃俊鴻,5715133轉731,是,否,是,175105.00695107377,2501170.6629061652,True
343,高雄市前鎮區,竹西里,廣東三街73號3樓,120.3198654,22.60930404,高雄市竹西里活動中心,全區綜合運用,100,"水災,震災,土石流,海嘯",總務組,8215176,是,否,是,180077.64004051697,2501180.830069681,True
344,屏東縣內埔鄉,內埔村,廣濟路2號,120.5659,22.61,內埔國小,內埔村.興南村,120,"水災,震災,土石流,海嘯",張家驥,08-7792055轉14,是,否,否,205372.29816341377,2501163.3355136425,True
345,高雄市前鎮區,竹西里,光華二路80號,120.317629,22.610595,高雄市立中正高級工業職業學校,興東、忠孝、竹西、復國、竹中、竹內、瑞竹、竹東、竹南、竹北等10里,1000,"水災,震災,土石流,海嘯",總務組,7232301,是,否,是,179848.3701186984,2501324.833116368,True
346,高雄市前鎮區,竹東里,和平二路170號,120.322944,22.61083,高雄市立光華國民中學,全區綜合運用,600,"水災,震災,土石流,海嘯",總務組,7222622,否,否,是,180394.9187663681,2501348.3629801706,True
347,屏東縣內埔鄉,內埔村,文化路183號,120.5695,22.611,內埔鄉文康中心,內埔村.和興村,120,"水災,震災,土石流,海嘯",林明志,08-7781184,是,是,否,205742.72142400558,2501272.991661536,True
348,高雄市前鎮區,瑞文里,瑞興街99號,120.331091,22.611085,高雄市立瑞豐國民中學,全區綜合運用,200,"水災,震災,土石流,海嘯",總務主任葉豐榮,07-7713181,否,否,否,181232.62908544228,2501372.8172540152,True
349,屏東縣內埔鄉,內埔村,文化路262號,120.5705,22.6113,內埔國中,"內田村,建興村,豐田村,竹圍村",120,"水災,震災,土石流,海嘯",黃百祥,08-7792013轉14,是,是,否,205845.62289704994,2501305.913939685,True
350,臺東縣太麻里鄉,大王村,文化路60號,121.003685,22.613304,大王國小,大王村泰和村,100,"水災,震災,土石流,海嘯",黃貞英,089-781342,是,否,否,250378.8252436119,2501464.1868212577,True
351,高雄市鳳山區,新甲里,新富路255號,120.339923,22.613771,高雄市鳳山區新甲國民小學,新甲、新強、新泰、新武、新樂、武漢、武慶里,2199,"水災,震災,土石流,海嘯",侯俊榮,7668170#40,是,否,是,182141.95146233862,2501666.196511241,True
352,高雄市苓雅區,苓東里,華新街59號,120.297064,22.613929,高雄市苓雅區成功國民小學,博仁、苓洲、苓昇、苓中、苓雅、苓東,920,"水災,震災,土石流,海嘯",羅永和,3341882130,否,否,是,177735.83831412962,2501703.8457748424,True
353,高雄市前鎮區,忠孝里,二聖二路194號,120.312716,22.61396,高雄市前鎮區愛群國民小學,全區綜合運用,1000,"水災,震災,土石流,海嘯",校長陳文炳,07-3320323#10,否,否,否,179344.9872276591,2501699.7715613563,True
354,高雄市大寮區,琉球里,琉球路64號,120.411173,22.613987,武侯宮,琉球里,200,"水災,震災,土石流,海嘯",郭家旺,7817327,否,否,是,189466.97015974903,2501659.4163649315,True
355,高雄市大寮區,光武里,民生路317-1號,120.384658,22.614458,光武里社區活動中心,光武里,20,"水災,震災,土石流,海嘯",李先然,7836672,否,否,是,186741.29814015192,2501722.586039808,True
356,高雄市苓雅區,城西里,四維四路61號,120.3005,22.6145,高雄市苓洲國民小學,城北、城西、城東、意誠、鼓中、田西、人和,855,"水災,震災,土石流,海嘯",蔡慧華,3351804310,是,否,是,178089.37987542705,2501765.4121210696,True
357,臺東縣太麻里鄉,大王村,11鄰順安路39號,120.993368,22.614936,順安府,大王村泰和村北里村,50,"水災,震災,土石流,海嘯",陳水獅,089-782297,是,是,是,249318.22540575246,2501644.9047167664,True
358,臺東縣太麻里鄉,大王村,11鄰順安路33號,120.993368,22.614936,太麻里鄉老人會館,大王村泰和村北里村,100,"水災,震災,土石流,海嘯",陳玉璽,089-781301,是,否,否,249318.22540575246,2501644.9047167664,True
359,屏東縣萬丹鄉,社皮村,屏東縣萬丹鄉社皮路二段550號,120.4681,22.615,社皮國小,社口村、社皮村、加興村、社中村、磚寮村。,100,"水災,震災,土石流,海嘯",黃裕貿,08-7072162,是,否,是,195319.74786090478,2501749.577173636,True
360,高雄市苓雅區,林貴里,英明路147號,120.324395,22.615251,高雄市立英明國民中學,光華、林貴、林榮、英明,1382,"水災,震災,土石流,海嘯",陳尚宏,715094933,否,否,否,180546.3141392526,2501837.2366269743,True
361,屏東縣內埔鄉,內田村,自強路85號,120.5629,22.6155,東寧國小,東寧村.東勢村.上樹村.東片村,120,"水災,震災,土石流,海嘯",邱煒恒,08-7785563,是,是,否,205065.66503120778,2501773.251149332,True
362,屏東縣萬丹鄉,社皮村,屏東縣萬丹鄉大昌路495號,120.4691,22.6157,老人文康活動中心,崙頂村,150,"水災,震災,土石流,海嘯",徐玉玲,08-7070982,是,否,是,195422.8278958357,2501826.72219331,True
363,屏東縣萬丹鄉,社皮村,屏東縣萬丹鄉大昌路495號,120.4691,22.6157,老人文康活動中心,崙頂村,150,"水災,震災,土石流,海嘯",徐玉玲,08-7070982,是,否,是,195422.8278958357,2501826.72219331,True
364,屏東縣萬丹鄉,廣安村,屏東縣萬丹鄉廣安村廣志街8巷15號,120.4905,22.6157,廣安國小,廣安村,30,"水災,土石流,海嘯",高源春,08-7772444,是,否,是,197622.81616643452,2501819.0409578932,True
365,屏東縣竹田鄉,西勢村,龍南路26號,120.524088,22.615722,竹田國中,第五收容所,600,"水災,震災",陳英貴,08-7792024,是,否,是,201075.76713544622,2501810.058331255,True
366,高雄市大寮區,琉球里,黃厝路35之10號,120.410497,22.616179,黃厝北極上帝殿,琉球里,200,"水災,震災,土石流,海嘯",黃天得,7819915,否,否,是,189398.43412232056,2501902.4151516166,True
367,屏東縣內埔鄉,富田村,里仁路202號,120.5401,22.6163,富田國小,富田村.振豐村,120,"水災,震災,土石流,海嘯",陳東星,08-7791034,是,否,是,202722.0399262547,2501868.890869688,True
368,高雄市大寮區,忠義里,忠義路1號,120.384143,22.616353,高雄市大寮區忠義國民小學,忠義里、中興里、前庄里,200,"水災,震災,土石流,海嘯,核子事故",鄭宿容,7812858轉40,否,否,是,186689.22076878455,2501932.642176778,True
369,高雄市鳳山區,新強里,輜汽路300號,120.342588,22.616576,高雄市立鳳甲國民中學,新強、新富里,1917,"水災,震災,土石流,海嘯",莊淑鈴,7675300#31,否,否,是,182417.3011354318,2501975.5906191943,True
370,高雄市鳳山區,生明里,黃埔新村國校巷78號,120.363867,22.616848,高雄市鳳山區誠正國民小學,生明、鎮東里,641,"水災,震災",沈學杰,07-7463417#40,否,否,否,184604.9998669828,2501996.2130649895,True
371,高雄市鳳山區,和興里,光華東路100號,120.358728,22.61715,高雄市鳳山區鳳西國民小學,和興、和德、誠義里,1711,"水災,震災,土石流,海嘯",黃明華,7417655#40,是,否,是,184076.83476807462,2502031.919216819,True
372,高雄市鳳山區,國富里,新富路630號,120.349428,22.617854,高雄市鳳山區忠孝國民小學,國富、國泰、國光里,1898,"水災,震災",柯佳儀,07-7632257#40,否,否,否,183121.10041444303,2502114.0202252567,True
373,高雄市苓雅區,華堂里,四維三路176號,120.30541,22.618047,高雄市立苓雅國民中學,仁政、廣澤、美田、華堂、日中、和煦,945,"水災,震災,土石流,海嘯",林淑蘭,3353307,是,否,否,178595.99082275608,2502155.8218941544,True
374,高雄市大寮區,忠義里,商協福利路59-1號,120.382478,22.618515,忠義里里辦公處2樓,忠義里,20,"水災,震災,土石流,海嘯",邴健鵬,7828959,否,否,是,186519.04457417503,2502172.7536706277,True
375,高雄市大寮區,中興里,文化路2巷2號,120.387461,22.618811,中興里社區活動中心,中興里,25,"水災,震災,土石流,海嘯",王英美,7811786,否,否,是,187031.44316938453,2502203.415495407,True
376,高雄市苓雅區,福康里,漢陽街17號,120.32935,22.618957,高雄市苓雅區福康國民小學,朝陽、福隆、福康、福人、福地、福居、福東,1764,"水災,震災,土石流,海嘯",吳政宗,7227134#732/735,是,否,否,181057.5630024323,2502245.311685692,True
377,高雄市鳳山區,誠正里,維武路1號,120.3656,22.6192,黃埔營區,如需進行異地收容安置方才啟用，視情況調度收容對象,600,"水災,震災,土石流,海嘯",社會局救助科-林宗德股長,3368333轉2063,是,否,是,184784.26795704145,2502255.8960939087,True
378,高雄市鳳山區,國隆里,國泰路2段81號,120.346448,22.619923,高雄市立忠孝國民中學,國隆里、新富里、海洋里、國泰里,1800,,林彥妙,07-763525235,否,否,否,182815.75169556364,2502344.46719461,True
379,高雄市鼓山區,維生里,鼓山一路1號,120.2745,22.6202,新濱營區,如需進行異地收容安置方才啟用，視情況調度收容對象,230,"水災,震災,土石流,海嘯",社會局救助科-林宗德股長,33683332060-2062,是,否,是,175419.4790902206,2502409.377742225,True
380,高雄市苓雅區,晴朗里,四維三路2號9樓,120.312,22.6205,高雄市政府社會局安琪兒家園,需特殊照顧之失依兒童少年，如需異地安置始視情況進行開設,3,"水災,震災,土石流,海嘯",社會局婦女及保護服務科業務承辦人,07-3303353,是,否,是,179274.722036004,2502424.3069361374,True
381,高雄市苓雅區,晴朗里,四維三路2號9樓,120.312,22.6205,高雄市政府社會局陽光家園,需特殊照顧之失依兒童少年，如需異地安置始視情況進行開設,3,"水災,震災,土石流,海嘯",社會局婦女及保護服務科業務承辦人,07-3303353,是,否,是,179274.722036004,2502424.3069361374,True
382,高雄市苓雅區,林德里,三多二路100號,120.324166,22.62062,高雄市苓雅區五權國民小學,普天、林興、林華、林西、林中、林泉、林南、中正、同慶、凱旋、林德,582,"水災,震災,土石流,海嘯",古振宏,751107431,是,否,是,180525.46877916972,2502431.8693729104,True
383,屏東縣內埔鄉,興南村,育文路73號,120.5815,22.6207,育英國小,興南村.義亭村,120,"水災,震災",陳美倫,08-7793004轉13,是,是,是,206979.40653593896,2502343.555511083,True
384,高雄市前金區,博孝里,五福三路122號,120.2927,22.6209,高雄市立高雄高級女子中學,博孝、社西、社東、文東、文西、榮復、長生里,1145,"水災,震災,土石流,海嘯",黃秀霞,07-2115418,是,否,是,177290.85335125343,2502477.892925226,True
385,高雄市鹽埕區,育仁里,大智路150號,120.288,22.621,高雄市鹽埕區光榮國民小學,育仁、沙地、南端里,200,"水災,震災,土石流,海嘯",李哲明,5218625,是,否,是,176807.73730099108,2502491.2682101694,True
386,高雄市大寮區,前庄里,前庄路49號,120.393778,22.621389,謝府元帥廟,前庄里,50,"水災,震災,土石流,海嘯",陳正吉,7025519,否,否,是,187682.00512623228,2502486.226277555,True
387,高雄市鹽埕區,河濱里,大智路71號,120.2852,22.6216,高雄市鹽埕區忠孝國民小學,全區,563,"水災,震災,土石流,海嘯",楊頌平,551-4887#310,是,否,是,176520.21083023967,2502559.0870864186,True
388,臺中市沙鹿區,埔子里,正義路218號,120.3381,22.6219,沙鹿幼兒園埔子分班,埔子里,116,"水災,震災,土石流,海嘯",洪麗園,04-26634853,是,否,否,181958.53464795428,2502567.175403895,True
389,高雄市苓雅區,林富里,青年一路103號,120.312653,22.623092,高雄市苓雅區四維國民小學,普照、晴朗、林富、林圍、林安、尚義,2236,"水災,震災,土石流,海嘯",沙寶珠,3348199#310,是,否,否,179343.1761484483,2502711.0178260608,True
390,高雄市大寮區,翁園里,翁園路79之1號,120.408663,22.623246,翁園里社區活動中心,翁園里,60,"水災,震災,土石流,海嘯",林丁貴,7813753,否,否,是,189212.998552578,2502685.7042122763,True
391,高雄市大寮區,翁園里,翁園路79號,120.408663,22.623246,高雄市大寮區翁園國民小學,翁園里、琉球里,400,"水災,震災,土石流,海嘯,核子事故",侯進昇,7811685轉40,否,否,是,189212.998552578,2502685.7042122763,True
392,高雄市鼓山區,惠安里,臨海二路50號,120.2713,22.6236,高雄市鼓山區鼓山國民小學,登山、壽山、維生、麗興、哨船頭、峰南、延平、新民、惠安里、桃源里,745,"水災,震災,土石流,海嘯",總務主任,5217795,是,否,是,175092.3523515076,2502787.4792254632,True
393,高雄市鹽埕區,育仁里,新樂街46號,120.2879,22.6236,高雄市立鹽埕國民中學,藍橋、慈愛、博愛、壽星、中原、光明里、府北,300,"水災,震災,土石流,海嘯",蔡智文,5517524,是,否,是,176798.83357915853,2502779.2251124927,True
394,高雄市鹽埕區,江南里,五福四路183號,120.2829,22.6237,高雄市鹽埕區鹽埕國民小學,中山、新樂、教仁、河濱、港都、江西、新豐、陸橋、瀨南、新化、江南里,100,"水災,震災,土石流,海嘯",林貴芬,5210626110,是,否,是,176284.8869882861,2502792.7646560534,True
395,高雄市鳳山區,南興里,大東一路1號,120.362625,22.623852,高雄市鳳山區大東國民小學,三民、鎮東、南興、光明、新興里,367,"水災,震災",賴麗華,7462344#40,否,否,否,184480.63604795013,2502772.3293647156,True
396,高雄市苓雅區,福祥里,福德三路96號,120.3269,22.6241,高雄市苓雅區福東國民小學,奏捷、福壽、福南、林靖、福祥、福海、福西、永康,1087,"水災,震災,土石流,海嘯",陳柏村,7510048132/2623513132,是,否,是,180808.2697244021,2502815.9479754786,True
397,高雄市新興區,玉衡里,五福二路218號,120.304,22.6244,高雄市立新興高級中學,東坡、漢民、玉衡、振成、振華里,1091,"水災,土石流,海嘯",凌子雲,07-2727127#3010,是,否,是,178454.32458728168,2502859.988150941,True
398,高雄市鹽埕區,光明里,大仁路6號8樓,120.2868,22.6248,鹽埕區公所11樓大禮堂,全區（小型災害優先開設）,50,"水災,震災,土石流,海嘯",顏賜山,5513316-100,是,否,是,176686.38995785385,2502912.64674428,True
399,高雄市鳳山區,興仁里,中山路231號,120.356507,22.624823,高雄市鳳山區鳳山國民小學,興仁、興中、協和、成功里,873,"水災,震災,土石流,海嘯",洪正松,7419119#41,是,否,是,183852.178294273,2502882.555157778,True
400,高雄市鳳山區,縣口里,經武路30號,120.3592,22.6252,鳳山區公所大禮堂,全區主要以新興、光明、瑞興、瑞竹、誠德、東門、鳳東、曹公、三民、國泰、興仁、合興里、北門里等易淹水潛勢區里別收容為主,200,"水災,震災,土石流,海嘯",吳聖文,07-7422111,是,否,是,184129.1928767004,2502923.107737543,True
401,高雄市鳳山區,瑞竹里,中山東路227號,120.372009,22.625285,高雄市立鳳山國民中學,瑞竹、中正、鳳東、誠德、誠智、誠信里,2327,"水災,震災,土石流,海嘯",錢志強,7462774#100,是,否,是,185445.9669045715,2502926.911100219,True
402,高雄市新興區,浩然里,五福二路3號,120.3095,22.6257,高雄市立高雄高級高商職業學校,浩然、德生、永寧、正氣里,1036,"水災,震災,土石流,海嘯",陳湘云,07-2269975#1411,是,否,是,179020.3868071603,2503001.309827721,True
403,高雄市前金區,國民里,大同二路61號,120.293922,22.626351,高雄市前金區前金國民小學,國民、民生、復元、林投里、全區綜合緊急運用,1564,"水災,震災,土石流,海嘯",陳瓊如,07-2829001,否,否,是,177419.33879218966,2503080.9061589325,True
404,高雄市苓雅區,正義里,中正一路8號,120.338791,22.626491,高雄市立中正高級中學,正義、正仁、文昌、建軍、衛武,3294,"水災,震災,土石流,海嘯",林明賢,7491992#8301,是,否,否,182031.8267158399,2503075.234849078,True
405,高雄市新興區,永寧里,民生一路321號,120.305317,22.627003,高雄市新興區新興國民小學,蕉園、德政、華聲、仁聲,1182,"水災,震災,土石流,海嘯",林岳翰,07-2412119#131,是,否,是,178591.0555158456,2503147.595376077,True
406,屏東縣泰武鄉,萬安村,1鄰3號,120.6384,22.6274,萬安活動中心,萬安村,100,"水災,震災,土石流",邱正明,08-7830328,是,否,是,212830.42304316696,2503070.1257219766,True
407,高雄市前金區,林投里,自強二路169號三、四樓,120.2943,22.6276,前金區公所5樓大禮堂,全區小型災害優先開設,25,水災,蔡登山,07-2723133#101,是,否,是,177458.85177737154,2503219.028375265,True
408,高雄市新興區,榮治里,大同一路231號,120.2985,22.628,高雄市新興區大同國民小學,榮治、大明、明莊、秋山、長驛里,964,"水災,震災,土石流,海嘯",曾秀玉,07-2823039#31,是,否,是,177890.80713667316,2503261.281874667,True
409,高雄市鳳山區,埤頂里,勝利路2號,120.37408,22.628249,高雄市鳳山區中正國民小學,埤頂、東門、鳳東里,0,"水災,震災,土石流,海嘯",蔡翠萍,7012831#131,是,否,是,185660.2398592861,2503254.225810422,True
410,高雄市大寮區,溪寮里,溪寮路54之1號,120.420494,22.628398,溪寮里社區活動中心,溪寮里,60,"水災,震災,土石流,海嘯",王基安,6517736,否,否,是,190431.4260931169,2503251.413885813,True
411,高雄市鳳山區,光明里,中正路172號,120.361,22.6284,基督教鳳山長老教會,全區（主要以新興、光明、瑞興、東門、鳳東、曹公、三民、國泰、興仁、和興、北門等易淹水潛勢區里別收容為主）,150,"水災,震災,土石流,海嘯",林靜花,07-7462676,是,否,是,184315.7491394602,2503276.6571296533,True
412,高雄市前金區,後金里,六合二路278號,120.2905,22.6294,高雄市立前金國民中學,新生、後金、北金、東金,1218,"水災,震災,土石流,海嘯",蔡月梅,07-2725981,是,否,是,177069.17327751766,2503420.205377347,True
413,高雄市鳳山區,忠孝里,光復路二段130號,120.345723,22.629893,國立鳳山高級中學,忠孝、忠義、中和、鎮西里,200,"水災,震災,土石流,海嘯",余欣欣,7463150#430,是,否,是,182746.07046713083,2503448.800832092,True
414,屏東縣瑪家鄉,排灣村,5鄰58號,120.6264,22.63,排灣社區活動中心,排灣村,148,"水災,土石流",金天光,08-7990107,是,否,是,211597.62948459166,2503361.0671451055,True
415,高雄市苓雅區,正大里,輔仁路100號,120.333309,22.630177,高雄市苓雅區中正國民小學,正文、正言、正大、正心、正道,1855,"水災,震災,土石流,海嘯",吳軒銘,7225936,是,否,否,181470.12065979093,2503485.909469579,True
416,高雄市鳳山區,瑞興里,博愛路271號,120.368353,22.63018,高雄市鳳山區瑞興國民小學,瑞興、海光里,1309,"水災,震災,土石流,海嘯",潘清富,7429803#10,否,否,是,185072.4385295902,2503470.5362282125,True
417,高雄市鳳山區,,博愛路477巷18號,120.3648,22.6303,鳳山街友服務中心,鳳山街友中心服務區域之街友,32,"水災,震災,土石流,海嘯",街友中心主任,07-7190895,是,否,是,184707.268584702,2503485.377839465,True
418,高雄市大寮區,溪寮里,溪寮路69號,120.420439,22.630524,高雄市大寮區溪寮國民小學,溪寮里、義和里,100,"水災,震災,土石流,海嘯,核子事故",龔輝基,6516256轉30,否,否,是,190426.68867743402,2503486.85170529,True
419,高雄市鳳山區,忠孝里,光復路一段120巷8號,120.349906,22.630617,高雄市鳳山區中山國民小學,忠孝、忠義里,1759,"水災,震災",王寅榕,07-7458021#40,否,否,否,183176.40927925654,2503527.088055442,True
420,高雄市鳳山區,忠孝里,青年路二段89號,120.349,22.630785,高雄市立青年國民中學,忠孝、文福、鎮西里,376,"水災,震災,土石流,海嘯",黃紘玉,7190419#31,是,否,是,183083.35944043886,2503546.0980822695,True
421,屏東縣內埔鄉,老埤村,壽比路116號,120.5943,22.6308,泰安國小,老埤村.中林村,120,"水災,震災,土石流,海嘯",涂淳益,08-7783031轉14,是,否,否,208298.27202562644,2503458.285337308,True
422,臺東縣太麻里鄉,北里村,三鄰北太麻里二0-四號,120.9994,22.6313,北里活動中心,北里村,30,"水災,震災,土石流,海嘯",鄒宗翰,089-781302,是,否,是,249938.32684721117,2503456.837779681,True
423,高雄市新興區,興昌里,中正三路32號,120.311,22.6316,高雄市新興區信義國民小學,順昌、文昌、開平、興昌、中東、光耀、德望里,1091,"水災,震災,土石流,海嘯",葛冠蘭,07-2365163#31,是,否,是,179177.60683445365,2503653.923034613,True
424,高雄市鼓山區,光化里,鼓山二路37巷24號,120.280013,22.631757,高雄市鼓山區壽山國民小學,光化及山下里,345,"水災,土石流,海嘯",總務主任,5514393,是,否,否,175992.4171674606,2503686.380015976,True
425,高雄市前金區,草江里,自立二路111號,120.2979,22.6324,高雄市前金區建國國民小學,長興、草江、青山、三川、長城里,516,"水災,震災,土石流,海嘯",朱柏州,2860128,是,否,是,177831.42667887016,2503748.8008005433,True
426,高雄市鼓山區,光化里,鼓山二路37巷108號,120.278437,22.633012,高雄市立壽山國民中學,興宗里,745,"水災,震災,土石流,海嘯",總務主任,5519150,是,否,否,175831.087329194,2503826.13552536,True
427,高雄市三民區,立德里,市中一路339號,120.2878,22.634,高雄市三民區河濱國民小學,立德里、力行里、千秋里、裕民里、豐裕里、川東里,745,"水災,震災,土石流,海嘯",謝忠豪總務主任,2211408#731,是,否,是,176794.0617241297,2503930.9062410183,True
428,高雄市新興區,中東里,七賢一路393號,120.307,22.634,高雄市新興區七賢國民小學,南港、成功、新江、黎明、愛平、建興、建華,1091,"水災,土石流,海嘯",張義方,07-2351150#813,是,否,是,178767.66922458,2503921.5919007286,True
429,高雄市鳳山區,文華里,文化路52號,120.352746,22.6344,高雄市鳳山區文華國民小學,文華、文福、文衡里,3170,"水災,震災,土石流,海嘯",尤文泰,7450949,否,否,是,183470.16469890784,2503944.718551664,True
430,高雄市大寮區,中庄里,中庄路59號,120.397497,22.634717,高雄市大寮區中庄國民小學,中庄里,100,"水災,震災,土石流,海嘯,核子事故",王豪華,7032838轉40,否,否,是,188070.28964197426,2503960.5126424483,True
431,高雄市三民區,千歲里,三民街222號,120.2906,22.6354,"千歲,千北,立德,鳳南聯合里活動中心",千歲里、千北里、立德里、鳳南里,200,"水災,震災,土石流,海嘯",丁陳月雲,2158892,是,否,是,177082.61859125964,2504084.5594700743,True
432,高雄市三民區,興德里,三民街39-1號,120.2958,22.6361,三塊厝聯合里活動中心,興德里、建東里、鳳北里、港西里,500,"水災,震災,土石流,海嘯",林品君,07-2852190,是,否,是,177617.49889471655,2504159.535292221,True
433,高雄市苓雅區,民主里,憲政路235號,120.319935,22.636415,高雄市苓雅區凱旋國民小學,安祥、五權、民主、五福,1273,"水災,震災,土石流,海嘯",蘇裕義,2235181,是,否,否,180098.50293899275,2504182.881531255,True
434,高雄市大寮區,中庄里,光明路三段1437號,120.401844,22.636416,高雄市立中庄國民中學,中庄里、江山里,800,"水災,震災,土石流,海嘯,核子事故",盧奇男,7033166轉310,否,否,是,188517.87390797882,2504146.8447063994,True
435,高雄市三民區,千北里,建國三路216號,120.2911,22.6367,高雄市三民區三民國民小學,千北里、千歲里、鳳北里、鳳南里、德西里、德興,818,"水災,震災,土石流,海嘯",許書維,2810378#31,是,否,是,177134.69968534657,2504228.2686875127,True
436,高雄市鼓山區,寶樹里,鼓山二路166號,120.281,22.6368,鼓山區行政中心七樓大禮堂,全區（優先開設）,20,"水災,震災,土石流,海嘯",鄭區長明興,5311191,是,否,是,176096.571883103,2504244.321459262,True
437,高雄市大寮區,江山里,江山路51號,120.411378,22.63768,江山里社區活動中心,江山里,30,"水災,震災,土石流,海嘯",許世川,7016158,否,否,是,189498.41473548714,2504282.903562127,True
438,高雄市大寮區,後庄里,民揚路28號,120.389503,22.637822,高雄市大寮區後庄國民小學,後庄里,360,"水災,震災,土石流,海嘯,核子事故",陳福正,7035278,否,否,是,187249.9954234172,2504307.6841761796,True
439,屏東縣屏東市,龍華里,公華街182號,120.4822,22.6379,屏東市公館國小,公館里、頂柳里、龍華里,630,"水災,震災",王昭盛,08-7522205#14,是,是,是,196778.09756125516,2504280.209877873,True
440,高雄市三民區,建東里,建國三路50號,120.298,22.6382,高雄市立高雄高級中學,建東里、博惠里、港新里、長明里、博愛里、港東里、港西里,2794,"水災,震災,土石流,海嘯",吳麗娟總務組長,2862550#108、567,是,否,是,177844.7346723954,2504391.0081347544,True
441,高雄市三民區,寶德里,光武路35號,120.3343,22.6388,高雄市三民區光武國民小學,寶德里、寶民里、寶國里、寶盛里、寶華里、寶業里、寶獅里、寶慶里,1564,"水災,震災,土石流,海嘯",柯易興,3867458#31,是,否,是,181576.25962781784,2504440.30568594,True
442,高雄市鳳山區,鎮北里,北辰街1號,120.3658,22.6393,北辰宮,鎮北、武松、北門,100,"水災,震災,土石流,海嘯",趙福蔭,07-7451531,是,否,是,184814.30797728582,2504481.533695067,True
443,高雄市鼓山區,河邊里,河邊街155號,120.283,22.6401,高雄市鼓山區鼓岩國民小學,鼓岩、樹德、河邊、寶樹、綠川、興宗、光化、厚生、山下里,364,"水災,震災,土石流,海嘯",總務主任,5515513,是,否,是,176303.91258593457,2504608.752235874,True
444,高雄市三民區,寶德里,覺民路363號,120.33318,22.640511,高雄市立民族國民中學,寶泰里、寶德里,1673,"水災,震災,土石流,海嘯",廖兆祥,3818718#31,是,否,否,181461.9859713994,2504630.285579511,True
445,高雄市三民區,德北里,德北街170號,120.2951,22.6406,"德北,十全,十美聯合里活動中心",德北里、十全里、十美里,200,"水災,震災,土石流,海嘯",劉啟聰,910720976,是,否,是,177547.90536851587,2504658.178169215,True
446,高雄市鳳山區,文德里,文衡路356號,120.353925,22.640693,高雄市鳳山區文德國民小學,文山、文英、文德里,250,"水災,震災,土石流,海嘯",吳佳儒,7768723#41,是,否,是,183594.37975118426,2504641.034200409,True
447,高雄市三民區,寶安里,覺明路585號,120.3289,22.6407,寶安里活動中心,寶安里,50,"水災,震災,土石流,海嘯",杜鈴專、蔡瑞親、黃碧玉,07-3891818,是,否,是,181022.15326176985,2504653.1915130317,True
448,高雄市大寮區,後庄里,成功路188號,120.390201,22.640743,後庄老人活動中心,後庄里,150,"水災,震災,土石流,海嘯",黃義荃,7012766,否,否,是,187323.06650925273,2504630.839334655,True
449,屏東縣麟洛鄉,麟蹄村,中山路158號,120.536,22.641,麟洛鄉公所,麟蹄村、麟頂村、麟趾村，合計3村避難使用。,50,水災,鍾壽喜,08-7222553,是,否,否,202309.07354615344,2504605.237419924,True
450,屏東縣內埔鄉,老埤村,學府路1號,120.5960839,22.64119569,國立屏東科技大學孟祥體育館,全縣,500,"水災,震災",侯嘉美,08-7740150,是,否,是,208484.76379547495,2504608.8997944263,True
451,屏東縣屏東市,公館里,公興路11號,120.4842,22.6412,屏東縣立公正國中,新興里、玉成里、大湖里,2413,"水災,震災",潭仲萍,08-7522097#14,是,是,是,196984.93715146437,2504644.908804656,True
452,高雄市大寮區,義和里,義和路166號,120.420934,22.641423,義和代天府,義和里,30,"水災,震災,土石流,海嘯",姚福連,6514033,否,否,是,190482.26576587322,2504693.520569099,True
453,高雄市鳳山區,鎮北里,鳳北路170號,120.368052,22.642652,高雄市鳳山區鎮北國民小學,忠誠里、鎮北里,1767,"水災,震災",王玫瓔,07-7311709#204,否,否,否,185047.3605284801,2504851.725225351,True
454,臺東縣金峰鄉,新興村,"1鄰1號No.1,Xingxing,Jinfeng Township,Taitung County 964,TaiwanR.O.C.",121.002857,22.64298,新興國小 Xingxing Elementary School,新興村,100,水災,黃潮源,089-781687,是,否,否,250293.64217442775,2504750.1422902625,True
455,高雄市三民區,德智里,自由一路52號,120.3088,22.643,"德智,德仁里活動中心",德智里、德仁里、同德里、達德里、達仁里、達勇里,200,"水災,震災,土石流,海嘯",李明同,07-3214842,是,否,是,178957.3225989259,2504917.334343509,True
456,高雄市三民區,寶德里,壽昌路2號,120.3339,22.6431,寶珠溝里活動中心,寶德里,500,"水災,震災,土石流,海嘯",楊吉雄,3859911,是,否,是,181537.2755041943,2504916.642600218,True
457,高雄市三民區,本上里,義華路166號,120.340424,22.643129,高雄市立陽明國民中學,本上里、本揚里、寶國里、本安里,2130,"水災,震災,土石流,海嘯",吳昌和 總務主任,3892919#32,是,否,否,182207.857011837,2504916.867132906,True
458,高雄市三民區,安發里,平等路197號,120.3202,22.6435,高雄市三民區民族國民小學,安發里、安吉里、安康里、安寧里、正興里,1582,"水災,震災,土石流,海嘯",張智麒總務組長,3860526#834,是,否,是,180129.32562140177,2504967.3036501985,True
459,高雄市鳳山區,忠誠里,鳳松路442號,120.3648,22.6436,高雄市避難收容暨備災訓練中心,（優先開設）需異地安置之本市民眾,400,"水災,震災,土石流,海嘯",社會局救助科-林宗德股長,3368333轉2063,是,否,是,184713.553086083,2504958.1229424537,True
460,高雄市三民區,川東里,同盟三路442號,120.283,22.6442,中都地區聯合里活動中心,力行里、川東里、裕民里、豐裕里、千秋里、德西里,500,"水災,震災,土石流,海嘯",李憲宗,3128598,是,否,是,176306.0999275993,2505062.7620748677,True
461,高雄市三民區,正興里,覺民路850號,120.319684,22.644461,高雄市立正興國民中學,正興里、寶龍里、寶中里、灣中里,1455,"水災,震災,土石流,海嘯",陳美玲 總務主任,3809591#320,是,否,否,180076.77523874704,2505073.9609321207,True
462,高雄市三民區,同德里,十全一路1號,120.3137,22.6445,高雄市三民區愛國國民小學,同德里、安生里、德仁里、德智里、灣興里,709,"水災,震災,土石流,海嘯",黃?博,3161191#231,是,否,是,179461.735842829,2505081.1038094168,True
463,高雄市三民區,安東里,十全一路202號,120.3067,22.6453,高雄市三民區博愛國民小學,安東里、安和里、達仁里、達明里、達勇里、達德里,982,"水災,震災,土石流,海嘯",林佳蓉,3110708#31,是,否,是,178742.66025644605,2505173.02599207,True
464,高雄市三民區,寶玉里,義德路52號,120.3356,22.6457,高雄市三民區陽明國民小學,寶玉里、寶泰里、本武里,1527,"水災,震災,土石流,海嘯",張仁志,3851916#731,是,否,是,181713.29496383178,2505203.7679973026,True
465,高雄市三民區,寶興里,大豐二路20號,120.3261,22.6463,高雄市三民區正興國民小學,寶興里、寶安里、寶珠里、寶龍里、寶中里、正順里,1818,"水災,震災,土石流,海嘯",黃同進主任、黃昭仁,3845206#734,是,否,是,180737.15887001692,2505274.5990431258,True
466,高雄市三民區,安東里,十全一路200號,120.306679,22.64653,高雄市立三民國民中學,安東里、達勇里、德仁里,964,"水災,震災,土石流,海嘯",梁梅松 總務主任,3227751#330,是,否,否,178741.13642997993,2505309.2385727162,True
467,高雄市三民區,安宜里,十全二路162號,120.2987,22.6467,高雄市三民區十全國民小學,安邦里、安宜里、安泰里、十全里、十美里、民享里、立業里、立誠里、精華里、德北里、德行里、德東里,1509,"水災,震災,土石流,海嘯",李玫芬,3214366131,是,否,是,177921.1223860841,2505331.906642567,True
468,高雄市三民區,安和里,松江街250號（三民公園內）,120.304,22.6467,"安東,安和,達明聯合里活動中心",安東里、安和里、達明里,100,"水災,震災,土石流,海嘯",傅秋陽,3226166,是,否,是,178465.86987312173,2505329.3488306026,True
469,高雄市三民區,安邦里,哈爾濱街215號9樓,120.2998,22.6476,高雄市三民區公所,安邦里、安宜里、安泰里、十全里、十美里、民享里、立業里、立誠里、精華里、德北里、德行里、德東里,100,"水災,震災,土石流,海嘯",杜淑芬,07-3228160#160,是,否,是,178034.65221496546,2505431.034681444,True
470,屏東縣麟洛鄉,麟蹄村,中山路2號,120.5227,22.648,麟洛國中,新田麟頂麟蹄,150,"水災,震災",張世良,08-7222812轉25,是,否,是,200944.5347114065,2505384.675325902,True
471,高雄市鳥松區,鳥松里,大埤路31號,120.352786,22.64819,高雄市立文山高級中學,鳥松、夢裡、大華,1020,"水災,震災,土石流,海嘯",總務主任聶松齡,7777272#410,是,否,否,183480.91684675243,2505471.708164675,True
472,高雄市三民區,寶盛里,大順陸橋下,120.3263,22.6483,寶盛里活動中心,寶盛里、安吉里、安發里,100,"水災,震災,土石流,海嘯",劉沛慈,3854453,是,否,是,180758.7181262938,2505495.9728723066,True
473,高雄市三民區,本安里,黃興路206號,120.3397,22.649,高雄市三民區東光國民小學,本安里、本上里、本揚里、本元里,2036,"水災,震災,土石流,海嘯",李堂立主任、張文芬,3839350#31,是,否,是,182136.32585017447,2505567.31191199,True
474,高雄市三民區,安宜里,自立一路535號,120.2967,22.6498,安宜里活動中心,安宜,300,"水災,震災,土石流,海嘯",黃文斌,07-3229476,是,否,是,177717.17983493264,2505676.1521665817,True
475,屏東縣屏東市,前進里,建國路405巷100弄39號,120.4583,22.6502,屏東市前進國小,前進里、大洲里,439,"水災,震災",江政麟,08-7523291#14,是,是,是,194326.45104705746,2505650.950088835,True
476,高雄市三民區,寶珠里,建工路419號,120.326452,22.65063,高雄市立高雄高級工業職業學校,寶珠里、寶玉里、本武里,1309,"水災,震災,土石流,海嘯",馬建能,3815366#2202,是,否,否,180775.50889603098,2505753.9111597594,True
477,屏東縣麟洛鄉,麟蹄村,中山路158號,120.5272,22.6507,麟洛鄉圖書館,麟蹄村、麟頂村、麟趾村，合計3村避難使用。,30,"水災,震災",涂秀京,08-7222553-40,是,否,是,201407.98879117746,2505682.171648261,True
478,屏東縣麟洛鄉,麟趾村,中華路86號,120.5272,22.6507,麟洛國小,麟趾田中田道田心,150,"水災,震災",傅新輝,08-7221670,是,否,是,201407.98879117746,2505682.171648261,True
479,高雄市鳥松區,仁美里,仁德路１１號,120.3953,22.6511,老人文康活動中心,仁美里、華美、大竹、?埔,150,"水災,震災,土石流,海嘯",陳美女,7328948,是,否,是,187851.83117022956,2505775.5562666333,True
480,高雄市鼓山區,正德里,明德路2號,120.27469,22.651425,高雄市立鼓山高級中學,雄峰、鼓峰、民族、前峰、內惟、建國、忠正、正德、自強及龍井里,1222,"水災,震災,土石流,海嘯",總務主任,5213258,是,否,否,175455.8587055043,2505866.9569002986,True
481,高雄市鼓山區,平和里,九如四路763號,120.278711,22.652148,高雄市鼓山區九如國民小學,光榮、平和、民強及厚生里,836,"水災,震災,土石流,海嘯",總務主任,5317186,是,否,否,175869.52292044647,2505945.008439592,True
482,屏東縣瑪家鄉,佳義村,泰平巷76號,120.6311,22.6536,佳義基督長老教會教育館,佳義村,100,"水災,土石流",王德成,08-7990103,是,否,是,212087.22486874717,2505973.0808448386,True
483,高雄市鳥松區,大華里,大華路200號,120.340501,22.653733,高雄市鳥松區大華國民小學,大華里,160,"水災,震災,土石流,海嘯",黃美華主任,3701359#540,是,否,是,182220.9762346336,2506091.04740723,True
484,高雄市鼓山區,龍子里,大順一路858號,120.2977,22.655,高雄市鼓山區龍華國民小學,裕興、華豐、裕豐、明誠、龍子里,1400,"水災,震災,土石流,海嘯",總務主任,5553086-31,是,否,是,177822.6786060086,2506251.4834264666,True
485,高雄市三民區,本和里,大和街190號,120.3261,22.6555,本和里活動中心,本和里,300,"水災,震災,土石流,海嘯",莊家銘,3959028,是,否,是,180741.77364830312,2506293.3473341474,True
486,高雄市三民區,灣成里,鼎山街445號,120.320505,22.655593,高雄市立鼎金國民中學,灣子里、灣成里、本文里,1273,"水災,震災,土石流,海嘯",楊毅弘,3831029#131,是,否,否,180166.7908851629,2506306.261681705,True
487,高雄市三民區,本館里,昌裕街55號,120.3315,22.6557,本館里集會所,本館里,50,"水災,震災,土石流,海嘯",簡明鎮,3816463,是,否,是,181296.86129726464,2506312.9896096564,True
488,高雄市大樹區,九曲里,九曲路498號,120.423343,22.655886,高雄市大樹區九曲國民小學,竹寮里、九曲里、久堂里,2075,"水災,震災,土石流,海嘯",蘇娟儀,07-6512541轉40,否,否,否,190736.08139657206,2506294.0764780752,True
489,高雄市三民區,灣成里,鼎山街375號,120.322,22.6561,高雄市立鼎金國民中學,灣成里、灣子里、灣中里、灣利里、灣勝里、灣復里、灣華里、灣愛里、鼎中里、鼎泰里,1345,"水災,土石流,海嘯",蔡啟禎,07-3836330#731,是,否,是,180320.69635208434,2506361.702484704,True
490,高雄市鳥松區,仁美里,介壽路14號,120.3933,22.6562,台灣基督教長老教會仁美教會短期收,全區,96,"水災,震災,土石流,海嘯",龐大衛牧師,7313037,是,否,是,187648.57863838458,2506341.129019968,True
491,高雄市三民區,本和里,大昌一路200號,120.3241,22.6563,高雄市三民區莊敬國民小學,本和里、本文里、本館里,2036,"水災,土石流,海嘯",蕭見文主任,3813210#5031、5311,是,否,是,180536.62494594217,2506382.8669002047,True
492,高雄市鼓山區,建國里,內惟路73號,120.2762,22.6565,高雄市鼓山區內惟國民小學,內惟、建國、光榮、忠正、龍井、民強、平和、正德里,1091,"水災,震災,土石流,海嘯",總務主任,5515405-31,是,否,是,175613.79019435012,2506428.1780173187,True
493,高雄市大樹區,九曲里,九大路639號,120.4245,22.6569,大樹區綜合體育館,竹寮、九曲、久堂、水安、水寮、井腳里,200,"水災,震災,土石流,海嘯",張簡宥榛,07-6512003轉135,是,否,是,190855.4253340174,2506405.8982994785,True
494,高雄市大樹區,九曲里,九曲路500號,120.422752,22.657006,高雄市立大樹國民中學,竹寮里，九曲里、久堂里,1200,"水災,震災,土石流,海嘯",謝瑛民,07-6512026轉311,否,否,否,190675.82329598494,2506418.3320811614,True
495,高雄市鼓山區,龍水里,美術東三路110號,120.28928,22.657594,高雄市立七賢國民中學,裕興、裕豐、華豐、明誠及龍子里,1036,"水災,震災,土石流,海嘯",總務主任,5559329,是,否,否,176958.67316203145,2506542.8383691255,True
496,高雄市三民區,灣愛里,大昌一路270巷2號,120.3213,22.6579,灣愛里活動中心,灣愛里,200,"水災,震災,土石流,海嘯",李永貴,3831695,是,否,是,180249.66324291241,2506561.351204703,True
497,高雄市大樹區,久堂里,久堂路195-20號,120.4137,22.6579,仁美營區,如需進行異地收容安置方才啟用，視情況調度收容對象,200,"水災,震災,土石流,海嘯",社會局救助科-林宗德股長,3368333轉2063,是,否,是,189745.91041443183,2506520.965664262,True
498,高雄市左營區,新上里,自由二路2號,120.309546,22.658147,高雄市立龍華國民中學,新上里,1600,"水災,震災,土石流,海嘯",鄧主任方正,07-5570720#320,是,否,是,179041.78474011528,2506594.262890707,True
499,高雄市鳥松區,華美里,學堂路2號,120.394141,22.658433,高雄市鳥松區仁美國民小學,仁美、華美、大竹、?埔,520,"水災,震災,土石流,海嘯",總務主任吳采瀅,7315633#40,是,否,否,187736.01893531394,2506588.042503588,True
500,屏東縣屏東市,瑞光里,民生東路51號,120.5122037,22.65860765,屏東大學屏商校區活動中心,縣級收容所,89,"水災,震災",邱耀松,08-7663800#10522,是,否,是,199869.58982402418,2506562.7692928314,True
501,屏東縣屏東市,清溪里,大武路225號,120.4725,22.6595,屏東縣立鶴聲國中,清溪里、大武里、永順里,1098,"水災,震災",楊舜傑,08-7520591#14,是,是,否,195789.54631776072,2506675.50843225,True
502,屏東縣屏東市,永安里,復興路376號,120.4862,22.6599,屏東市復興國小,永安里、新生里、頂宅里,535,"水災,震災",黃金和,08-7525402#14,是,是,否,197197.65668790805,2506714.8718279675,True
503,高雄市鳥松區,鳥松里,中正路98號,120.3643,22.66,鳥松區公所三樓,全區,50,"水災,震災,土石流,海嘯",社會課承辦人陳彥臻,07-7314191,是,否,是,184669.92137252146,2506774.3623530185,True
504,屏東縣屏東市,瑞光里,安心四橫巷139-1號,120.509,22.6609,屏東市民生國小,瑞光里、歸心里、湖西里、湖南里,265,水災,陳文德,08-7216566#14,是,是,是,199541.1806697205,2506817.687134425,True
505,高雄市鼓山區,明誠里,明誠三路582號,120.301532,22.661903,高雄市立明華國民中學,裕興、華豐、裕豐及明誠里,927,"水災,土石流,海嘯",總務主任,5502001,是,否,否,178220.1077259388,2507014.025865257,True
506,臺東縣太麻里鄉,華源村,一鄰大坑一五號,121.027792,22.66241819,華源活動中心,華源村,70,"水災,海嘯",古慶松,89781301,否,否,否,252856.05696023436,2506902.760403912,True
507,屏東縣屏東市,義勇里,台糖街61號,120.4915,22.6626,屏東市公所,光華里、義勇里,734,"水災,震災",黃秋芬,08-7560101,是,否,否,197743.3610949589,2507011.9742555213,True
508,高雄市鳥松區,鳥松里,文前路32號,120.361721,22.663078,高雄市鳥松區鳥松國民小學（備用）,鳥松、夢裡,50,"水災,震災,土石流,海嘯",陳信行組長,7321780#40,是,否,是,184406.33605558824,2507116.334119924,True
509,高雄市三民區,鼎西里,金鼎路81號,120.32672,22.663103,高雄市立三民高級中學,鼎西里、本和里,886,"水災,震災,土石流,海嘯",蔡仁榮主任,3475181#831,是,否,否,180809.3060740527,2507134.9664351707,True
510,臺東縣綠島鄉,南寮村,火燒山41號,121.4718,22.6644,空軍綠島探空分隊,三村,300,"水災,震災,土石流,海嘯",周源皓,089-672210,否,是,否,298484.422354809,2507198.8578140982,True
511,屏東縣屏東市,瑞光里,民生路4-18號,120.5044684,22.66539013,屏東大學民生校區體育館,縣級收容所,178,"水災,震災",邱耀松,08-7663800#10522,是,否,是,199077.1284178485,2507316.4292988945,True
512,屏東縣屏東市,萬年里,建興路36號,120.4866,22.6654,屏東市建國國小,建國里、一心里、擇仁里、萬年里,593,"水災,震災",張美莉,08-7521464#14,是,是,是,197240.86750584302,2507323.752528449,True
513,屏東縣屏東市,厚生里,建國路121號,120.4797,22.6656,屏東市鶴聲國小,崇武里、厚生里,1459,水災,楊碧枝,08-7554335#14,是,是,是,196531.85842406773,2507348.3637769907,True
514,高雄市左營區,新下里,高雄市左營區裕誠路1102號,120.300608,22.666009,高雄市立三民高級家事商業職業學校,新下里,1018,"水災,震災,土石流,海嘯",歐陽偉堅事務組長,5525887#182,是,否,否,178127.28580190538,2507469.146444564,True
515,高雄市鳥松區,鳥松里,松埔北巷5之1號,120.371072,22.666471,高雄市立鳥松國民中學,鳥松、夢裡、?埔,844,"水災,震災,土石流,海嘯",總務主任袁小惠,7323977#31,是,否,否,185368.92189070914,2507487.956254899,True
516,高雄市三民區,鼎中里,鼎力路125-1號地下1樓,120.3217,22.6667,"鼎中,鼎力,鼎膝,鼎金,鼎強,鼎盛聯合里",鼎中、鼎力、鼎西、鼎金、鼎強、鼎盛里,400,"水災,震災,土石流,海嘯",林國石,3421318,是,否,是,180295.21788868494,2507535.62053698,True
517,屏東縣屏東市,安鎮里,建國路二0二號,120.476,22.6668,屏東市大同國小,永昌里、長安里、永光里、安鎮里、凌雲里,846,"水災,震災",周淑娟,08-7524115#14,是,是,否,196152.09223555727,2507482.5770132816,True
518,屏東縣內埔鄉,龍泉村,原勝路6號,120.6002,22.6669,崇文國小,龍泉村,120,"水災,震災,土石流,海嘯",邱毓德,08-7701004轉10,是,是,否,208915.47871870978,2507453.9967130157,True
519,屏東縣內埔鄉,大新村,大新路109號,120.5909,22.6673,新生國小,大新村,120,"水災,震災,土石流,海嘯",陳慶寬,08-7708211,是,否,否,207959.89626486046,2507500.888722313,True
520,高雄市大樹區,水寮里,中華路國小巷1號,120.407847,22.667994,高雄市大樹區水寮國民小學,水安里、水寮里、井腳里,1079,"水災,震災,土石流,海嘯",曹雯青,07-6515536轉13,否,否,否,189148.8333048406,2507641.0820334638,True
521,高雄市三民區,鼎泰里,天祥二路31號,120.3157,22.6684,三民街友服務中心,三民街友中心服務區域之街友,80,"水災,震災,土石流,海嘯",街友中心主任,07-3432263,是,否,是,179679.48007060727,2507726.693841655,True
522,臺東縣綠島鄉,南寮村,南寮190號,121.4687,22.6686,南寮社區活動中心,南寮村,50,"水災,震災,土石流",童上歡,089-672358,是,否,是,298164.3803586446,2507662.9201457757,True
523,高雄市鳥松區,鳥松里,松埔北巷29號之10,120.389996,22.668784,財團法人玄光聖堂短期收容,全區,100,"水災,震災,土石流,海嘯",林瑞珍,07-7310395,是,否,是,187314.7292008719,2507735.978033387,True
524,高雄市鼓山區,龍水里,美術東二路252號,120.2848,22.6691,高雄市鼓山區中山國民小學,鼓峰、雄峰、前峰、民族、自強、龍水里,1364,"水災,震災,土石流,海嘯",總務主任,5505850,是,否,是,176504.371155734,2507819.1551663084,True
525,高雄市左營區,新中里,自由三路1號,120.309875,22.669267,高雄市左營區新莊國民小學,新中,1582,"水災,震災,土石流,海嘯",呂毓修事務組長,07-3411373,否,否,是,179081.3126027722,2507825.4674598183,True
526,臺東縣太麻里鄉,三和村,2鄰漁場131號,121.0354,22.6695,太麻里鄉三和村辦公處,三和村,70,"水災,震災,土石流",古慶松,089-781306,是,否,否,253637.70974851743,2507687.083365698,True
527,屏東縣屏東市,橋北里,自立路213號,120.4958,22.6706,屏東市民和國小,橋南里、橋北里、慶春里、長春里、楠樹里,418,"水災,震災",陳昭男,08-7229210#14,是,是,是,198188.26828063582,2507896.3201820343,True
528,高雄市左營區,新中里,重清路278巷51號,120.3117,22.6716,高雄新莊天后宮備用,備用開設,120,"水災,震災,土石流,海嘯",洪主委春基,07-3410080,是,否,是,179270.0560490361,2508082.9403713103,True
529,屏東縣屏東市,崇禮里,中山路41號,120.4852,22.6716,屏東市唐榮國小,泰安里、武廟里、大同里、光榮里、文明里、民權里、必信里、大埔里,490,"水災,震災",李英傑,08-7322306#14,是,是,是,197099.37230301075,2508010.7852508323,True
530,高雄市仁武區,仁慈里,仁慈路75號,120.3587,22.6717,仁慈活動中心,仁慈里,150,"水災,震災,土石流,海嘯",社會課災民收容業務承辦人,07-3719159,是,否,是,184099.98791138257,2508072.411821335,True
531,高雄市三民區,鼎金里,武功巷52號,120.3314,22.6718,和平營區,如需進行異地收容安置方才啟用，視情況調度收容對象,200,"水災,震災,土石流,海嘯",社會局救助科-林宗德股長,3368333轉2063,是,否,是,181294.60041306348,2508095.84676446,True
532,高雄市左營區,新下里,南屏路1號,120.295103,22.672458,高雄市左營區勝利國民小學,新下里,500,"水災,震災,土石流,海嘯",陳麗卿,5522541#732,否,否,是,177564.93303303944,2508185.9435708364,True
533,高雄市三民區,鼎強里,鼎金後路495號,120.3224,22.6726,高雄市三民區獅湖國民小學,鼎強里、鼎西里、鼎力里、鼎盛里、鼎金里,1582,"水災,震災,土石流,海嘯",林郁為總務主任,3424782#6031,是,否,是,180370.1330931395,2508188.6220647516,True
534,屏東縣屏東市,豐田里,民學路2路,120.5088,22.6726,屏東縣立中正國中,豐田里、豐榮里、豐源里,2138,"水災,震災",陳鴻鵬,08-7226387#41,是,是,是,199524.9071888313,2508113.3098704694,True
535,臺東縣綠島鄉,中寮村,臺東縣綠島鄉9鄰中寮4號,121.4701,22.6731,綠島國中,中寮村,200,"水災,震災,土石流",韓秉翃,（089）672506#11,是,否,是,298306.67309496884,2508161.663903743,True
536,臺東縣綠島鄉,中寮村,中寮1鄰3號,121.4699,22.6737,綠島國民小學,中寮村,200,"水災,震災,土石流",林麗菁,（089）672543#13,是,否,是,298285.911065289,2508228.0375346486,True
537,高雄市左營區,埤東里,翠華路687號,120.2928,22.6742,高雄市立大義國民中學,海勝、果貿、埤東里,50,"水災,震災,土石流,海嘯",蘇主任淑暖,5820191#10,是,否,是,177329.18659484712,2508379.967047885,True
538,臺東縣綠島鄉,中寮村,中寮1鄰31號,121.4702,22.6747,中寮社區活動中心,中寮村,30,"水災,震災,土石流",李怡如,089-672315,是,否,是,298316.38859777147,2508338.866074671,True
539,高雄市左營區,自助里,左營大路1號,120.2856,22.6752,高雄市立海青高級工商職業學校,崇實、自助、果峰、果惠里,100,"水災,震災,土石流,海嘯",顧斌主任,5819155#501,是,否,是,176589.83066444288,2508494.240118989,True
540,屏東縣屏東市,興樂里,仁愛路94號,120.4942,22.6753,國立屏東女中,端正里、崇智里、崇禮里、扶風里、金泉里、勝豐里、安樂里、平和里,2332,"水災,震災",陳立偉,08-7362204#41,是,是,是,198025.61985578592,2508417.3165409653,True
541,屏東縣瑪家鄉,瑪家村,馬卡札亞札亞街 1號,120.6869,22.6756,瑪家社區活動中心,瑪家村,150,"水災,土石流",林國輝,08-7997217,是,否,是,217827.10405836708,2508395.9827009565,True
542,高雄市大樹區,井腳里,井腳路118號,120.4074,22.6757,崇聖殿備用,全區調度備用,200,"水災,震災,土石流,海嘯",余清風,6513235,是,否,是,189106.29924282507,2508494.570228335,True
543,高雄市仁武區,大灣里,仁雄路99號,120.341612,22.676023,高雄市立大灣國民中學,大灣里、赤山里,500,"水災,震災,土石流,海嘯",社會課災民收容業務承辦人,07-3719159,是,否,是,182346.09096026735,2508558.790266807,True
544,臺東縣綠島鄉,公?村,公館98號,121.4848,22.6764,公館國民小學,公館村,200,"水災,震災,土石流",鍾文惠,（089）672548#12,是,否,是,299816.0531629742,2508531.929263198,True
545,高雄市左營區,菜公里,自由三路478號,120.313158,22.676691,高雄市左營區新民國民小學,菜公里,921,"水災,震災,土石流,海嘯",鄭欽元總務主任,3411888#731,否,否,是,179422.49098124536,2508645.9942770433,True
546,屏東縣屏東市,興樂里,仁愛路98號,120.4948,22.6767,屏東市仁愛國小,斯文里、興樂里、明正里、太平里、仁愛里,1204,"水災,震災",朱慧貞,08-7361114#22,是,是,是,198087.80204044888,2508572.1309027593,True
547,屏東縣屏東市,大連里,建豐路204號,120.5039,22.6769,屏東市忠孝國小,大連里,650,"水災,震災",邱意斌,08-7371545,是,是,是,199022.96985744996,2508591.1269858037,True
548,臺東縣綠島鄉,公?村,柴口1鄰62號,121.4847,22.6769,綠島鄉社會福利活動中心,公?村,60,"水災,震災,土石流",林鴻文,089-672145,是,否,是,299805.5968252741,2508587.261367863,True
549,屏東縣長治鄉,新潭村,潭頭路50號,120.5261,22.6772,長興國小,長興村、進興村、潭頭村、新潭村、香楊村,200,"水災,震災,土石流,海嘯",邱坤玉,7368567,是,否,是,201304.28675217708,2508616.901441153,True
550,高雄市左營區,菜公里,菜公一路91號,120.3155,22.6774,菜公豐谷宮備用,備用開設,50,"水災,震災,土石流,海嘯",施主委清山,07-3455059,是,否,是,179663.51654900674,2508723.3942978573,True
552,屏東縣屏東市,潭墘里,和平路429號,120.4777,22.678,屏東縣立大同高中,維新里、潭墘里、永城里,1380,"水災,震災",韓彬彬,08-7338499,是,是,否,196331.1510094214,2508722.1566231195,True
553,屏東縣內埔鄉,龍潭村,昭勝路438號,120.6021,22.6786,崇文國中,龍潭村,120,"水災,震災,土石流,海嘯",吳?耀,08-7701864轉14,是,否,否,209114.19819841426,2508749.0171457715,True
554,高雄市左營區,新光里,高雄市左營區曾子路281號,120.306724,22.679456,高雄市立左營國民中學,新光里、尾北里,836,"水災,震災,土石流,海嘯",謝秀吟總務主任,3433080#311,是,否,否,178762.7611154276,2508955.2444071365,True
555,高雄市仁武區,仁和里,仁忠路191號,120.354051,22.679647,高雄市仁武區登發國民小學,仁和里,1815,"水災,震災,土石流,海嘯",社會課災民收容業務承辦人,07-3719159,是,否,是,183626.0670931756,2508954.4788892446,True
556,高雄市左營區,新光里,華夏路800號,120.304805,22.67983,高雄市左營區新光國民小學,新光里,200,"水災,震災,土石流,海嘯",許主任志良,3438577,是,否,是,178565.76212795856,2508997.580326502,True
557,屏東縣屏東市,溝美里,大連路70號,120.4976,22.6799,屏東縣立明正國中,溝美里,4113,"水災,震災",蘇聖峰,08-7376293,是,是,是,198376.72130879358,2508925.496235766,True
558,高雄市左營區,埤西里,左營大路6巷81號3樓,120.289652,22.680335,埤子頭鎮福廟,埤西、埤北里,30,"水災,震災,土石流,海嘯",陳主委正雄,5825439,是,否,是,177008.93853989957,2509060.8657577867,True
559,屏東縣屏東市,勝利里,蘭州街2號,120.4857,22.6807,屏東市勝利國小,廣興里、勝利里、空翔里,1579,"水災,震災",蔡孟珍,08-7652038#14,是,是,是,197154.24019357515,2509018.264863488,True
560,屏東縣屏東市,大連里,興豐路86號,120.5091,22.6808,屏東市瑞光國小,大連里,1415,水災,林盈良,08-7383011#14,是,是,是,199558.73467734794,2509021.204827325,True
561,高雄市左營區,福山里,文慈路99號,120.3176,22.6812,高雄市立新莊高級中學,福山里,3305,"水災,震災,土石流,海嘯",洪明孝事務組長,07-3420103,是,否,是,179881.24383434324,2509143.1911573852,True
562,高雄市左營區,埤東里,蓮潭路36號,120.2923,22.682,啟明堂備用,備用開設,100,"水災,震災,土石流,海嘯",洪總幹事俊義,07-5816216,是,否,是,177281.91898832377,2509243.940237705,True
563,高雄市左營區,城南里,店仔頂路1號,120.290474,22.682196,舊城城隍廟,城南里,30,"水災,震災,土石流,海嘯",李主委榮宗,5832356,是,否,是,177094.38944243843,2509266.5391029613,True
564,高雄市左營區,廟東里,左營大路87號,120.288158,22.682521,左營元帝廟,中南、中北、廟東里,40,"水災,震災,土石流,海嘯",郭主委錦彬,5856961,是,否,是,176856.57830218304,2509303.6662038933,True
565,高雄市仁武區,灣內里,仁心路31號,120.357281,22.683088,高雄市仁武區灣內國民小學,灣內里、考潭里,330,"水災,震災,土石流,海嘯",社會課災民收容業務承辦人,07-3719159,是,否,是,183959.6210891,2509334.073395787,True
566,高雄市左營區,聖西里,蓮潭路47號,120.293004,22.683177,高雄市左營區舊城國民小學,聖西里、中南里、聖后里、聖南里、城南里、埤東里,582,"水災,震災,土石流,海嘯",曾主任望超,5810017#31,是,否,是,177354.87969777442,2509373.9303237153,True
567,高雄市左營區,菜公里,高雄市左營區重愛路99號,120.317215,22.683573,高雄市左營區福山國民小學,菜公里,1273,"水災,震災,土石流,海嘯",徐盛旺總務主任,3487633#311,是,否,否,179842.89014450088,2509406.1448842343,True
568,屏東縣屏東市,崇蘭里,廣東路1259號,120.477,22.6842,屏東市崇蘭國小,崇蘭里、潭墘里,614,"水災,震災",陳振賢,08-7333477#14,是,是,是,196261.63775503048,2509408.9465570273,True
569,高雄市左營區,中南里,蓮潭路116號,120.2951,22.6853,護安寺,廟東、廟北、尾南、路東、?南、?北、城南,100,"水災,震災,土石流,海嘯",林主委天生,07-5832184,是,否,是,177571.37065978686,2509607.996212557,True
570,高雄市左營區,路東里,?後街42巷2號,120.288708,22.685509,左營揚善堂,?北、?南、路東里,100,"水災,震災,土石流,海嘯",薛主委藤雄,5818879,是,否,是,176914.67831322495,2509634.2704496044,True
571,屏東縣屏東市,勝利里,忠孝路231號,120.4888,22.6861,國立屏東高中,信和里,2470,"水災,震災",周坤秀,08-7656444#513,是,是,是,197474.83727519706,2509615.1165513964,True
572,屏東縣屏東市,中正里,華正路80號,120.5017,22.687,屏東市和平國小,華山里、中正里,511,"水災,震災",林明憲,08-7364440#14,是,是,是,198800.65443505728,2509710.271243759,True
573,高雄市左營區,?北里,蓮潭路158號,120.296399,22.687113,天府宮,廟北里,30,"水災,震災,土石流",柯主委天爽,5834883,否,否,是,177705.7988521502,2509808.125048294,True
574,屏東縣內埔鄉,黎明村,西淇路177號,120.5969,22.6874,黎明國小,黎明村,80,"水災,震災,土石流,海嘯",蘇良瓊,08-7701200轉14,是,否,否,208582.51514583908,2509724.8853420964,True
575,臺東縣太麻里鄉,美和村,美和 90 號,121.044275,22.687685,太麻里鄉美和國民小學,美和村,100,"水災,震災,土石流,海嘯",倪明樑,089-781307,是,否,是,254549.1063731089,2509700.925371457,True
576,高雄市大樹區,大樹里,中正一路249號,120.43459,22.687763,高雄市大樹區大樹國民小學,大樹里、興山里、和山里,1091,"水災,震災,土石流,海嘯",李淑幸,07-6513752轉20,否,否,否,191905.4065025502,2509819.4488363974,True
577,高雄市左營區,明建里,海富路2號,120.289355,22.688006,高雄市左營區明德國民小學,明建里、尾西里、頂西里、頂北里、?北里,491,"水災,震災,土石流,海嘯",高銘駿總務主任,07-5811583#310,是,否,是,176982.48284422193,2509910.4565803655,True
578,高雄市左營區,?南里,海平路2號,120.291964,22.688899,?後北極殿,?南里,30,"水災,震災,土石流,海嘯",薛主委清正,5827102,是,否,是,177251.03402100623,2510008.062349164,True
579,高雄市仁武區,八卦里,永仁街555號,120.333146,22.689043,高雄市仁武區八卦國民小學,八卦里、五和里,1254,"水災,震災,土石流,海嘯",社會課災民收容業務承辦人,07-3719159,是,否,是,181482.5946267522,2510004.4236410796,True
580,高雄市左營區,進學里,左營大路479號8樓,120.29511,22.689882,左營區公所8樓大禮堂,尾南、尾北、尾西、聖南里小型災害優先開設,20,"水災,震災,土石流",區公所災民避難收容業務承辦人,5831115,是,否,是,177574.80597263048,2510115.3769056476,True
581,屏東縣瑪家鄉,?山村,涼山巷20號,120.6369,22.6901,涼山社區活動中心,涼山村,158,"水災,土石流",卓永勝,08-7991759,是,否,是,212693.1838239825,2510013.2573503656,True
582,高雄市左營區,進學里,高雄市左營區實踐路42號,120.293299,22.690488,高雄市左營區左營國民小學,進學里、尾西里、尾南里、明建里,745,"水災,震災,土石流,海嘯",曹玉鳳總務主任,5820042#731,是,否,否,177389.04414382362,2510183.366322539,True
583,高雄市仁武區,高楠里,高楠四街58號,120.3242,22.6917,高楠活動中心,高楠里,200,"水災,震災,土石流,海嘯",社會課災民收容業務承辦人,07-3719159,是,否,是,180564.72664159077,2510302.798673944,True
584,屏東縣屏東市,北興里,公裕街300號,120.4936,22.6917,屏東縣立至正國中,北興里,1338,"水災,震災",陳淵源,08-7666394#9,是,是,是,197970.15450556774,2510233.5246588374,True
585,臺東縣卑南鄉,溫泉村,龍泉路30號,121.019876,22.692402,知本金聯世紀酒店,溫泉村,30,,吳沛玲,089-515688,否,否,否,252042.12170930946,2510222.6910093008,True
586,高雄市大樹區,檨腳里,中興北路120號,120.4331,22.6933,大樹區公所二樓會議室,興山、和山、檨腳、大樹、龍目、小坪里,30,"水災,震災,土石流,海嘯",張簡宥榛,911111111,是,否,是,191754.64908240378,2510433.1580214514,True
587,屏東縣長治鄉,德成村,中興路578號,120.5437,22.6934,長治國中,崙上村、德協村、復興村、德成村,200,"水災,震災,土石流,海嘯",鍾冬玉,7621193,是,否,是,203118.31654953086,2510405.0842513596,True
588,高雄市左營區,進學里,海功路55號,120.296158,22.693416,高雄市立左營高級中學,進學里,200,"水災,震災,土石流,海嘯",蔡主任忍昭,5822010#301,是,否,是,177684.34307493846,2510506.202159947,True
589,屏東縣長治鄉,德成村,中興路551號,120.5415,22.6941,德協國小,德榮村.德和村,200,"水災,震災,土石流,海嘯",劉富連,7621844,是,否,是,202892.51760303392,2510483.2922690036,True
590,屏東縣三地門鄉,大社村,和平路2段35號,120.637733,22.694157,大社村辦公處含活動中心,大社村,200,"水災,震災,土石流",侯虎雄,912024772,是,是,是,212779.86723810548,2510462.2808643375,True
591,高雄市大樹區,小坪里,忠義路1號,120.3941,22.6942,高雄東照山關帝廟備用,全區調度備用,300,"水災,震災,土石流,海嘯",吳進財,3710981、3758030,是,否,是,187747.95278239733,2510548.6403551586,True
592,屏東縣瑪家鄉,三和村,美園巷90-4號,120.5989,22.6949,循理會南三和教會,美園社區,150,水災,杜達偉,08-7993402,是,否,是,208790.25514809418,2510554.8082845,True
593,高雄市左營區,菜公里,復興新村335號,120.299673,22.69567,復興永清里活動中心,永清、屏山里,150,"水災,震災,土石流,海嘯",黃耀慶,5831111#38,是,否,是,178046.6786755608,2510754.0903546386,True
594,高雄市左營區,祥和里,左營大路928巷101號,120.301803,22.69635,祥和山莊活動中心,祥和里,100,"水災,震災,土石流,海嘯",劉里長德文,5851536,是,否,是,178265.88185604828,2510828.3592370087,True
595,高雄市大樹區,檨腳里,中興北路227號,120.4321,22.6964,原大樹鄉民代表會,統嶺、興田、溪埔、三和、大坑、姑山里,42,"水災,震災,土石流,海嘯",張簡宥榛,07-6512003轉135,是,否,是,191653.21586851694,2510776.8214521403,True
596,臺東縣卑南鄉,溫泉村,溫泉路376巷18號,121.019705,22.696483,臺東縣農會東遊季溫泉渡假村,溫泉村,30,,黃建彰,089-516111,否,否,否,252024.49268000142,2510674.572458172,True
597,臺東縣卑南鄉,溫泉村,溫泉村11鄰溫泉路291號,121.02593,22.697667,溫泉國民小學,溫泉村,50,,劉和旺,089-512354#203,否,否,否,252664.02662282484,2510805.7735508825,True
598,臺東縣卑南鄉,溫泉村,溫泉村11鄰溫泉路293號,121.025091,22.697823,溫泉村活動中心,溫泉村,30,,吳春瑩,089-512744,否,否,否,252577.8255381088,2510823.0324250585,True
599,高雄市仁武區,烏林里,林森巷23號,120.372598,22.697888,高雄市仁武區.烏林國民小學,烏林里,429,"水災,震災,土石流,海嘯",社會課災民收容業務承辦人,07-3719159,是,否,是,185540.43468965148,2510966.1990452064,True
600,臺東縣卑南鄉,溫泉村,溫泉路314號,121.024826,22.698053,元新溫泉飯店,溫泉村,20,,何茂東,089-516360,否,否,否,252550.5954301752,2510848.495459495,True
601,屏東縣屏東市,三山里,海豐街3號,120.508,22.6989,屏東市海豐國小,三山里、海豐里、仁義里、和興里,655,"水災,震災",蘇俊名,08-7367023#14,是,是,是,199452.3437927493,2511025.8190206764,True
602,高雄市仁武區,仁武里,中正路94號,120.348359,22.701263,高雄市仁武區仁武國民小學,仁武里、文武里、後安里、仁福里,1782,"水災,土石流,海嘯",社會課災民收容業務承辦人,07-3719159,是,否,是,183051.67468703596,2511350.6523226406,True
603,高雄市仁武區,仁武里,中正路94號,120.3484,22.7013,仁武區綜合活動中心,仁武里、文武里、後安里、仁福里,500,"水災,土石流,海嘯",社會課災民收容業務承辦人,07-3719159,是,否,是,183055.90505855295,2511354.7309854226,True
604,屏東縣內埔鄉,隘寮村,清涼路二段238號,120.6357,22.7024,隘寮國小,隘寮村.水門村,120,"水災,震災,土石流,海嘯",徐健偉,08-7991036轉14,是,否,否,212573.22969204473,2511375.541882796,True
606,屏東縣長治鄉,德成村,水源路96號,120.5722,22.7026,繁華國小,繁華村、繁昌村、繁榮村、繁隆村、榮華村,200,"水災,震災,土石流,海嘯",鄭國卿,7621254,是,否,是,206049.47023267462,2511415.092586169,True
607,屏東縣瑪家鄉,三和村,三和巷16號,120.6095,22.7026,瑪家國中,三和村,100,"水災,震災",韓繼成,08-7991736,是,是,是,209881.57299723325,2511404.5308995917,True
608,臺東縣卑南鄉,溫泉村,溫泉路68號,121.032022,22.703397,亞莊酒店,溫泉村,30,,雲文章,089-511199,否,否,否,253289.77682913313,2511440.3716173614,True
609,屏東縣瑪家鄉,三和村,三和巷32號,120.6078,22.7034,中村基督長老教會,三和社區,200,水災,黃信惠,08-7991650,是,否,是,209707.15382773592,2511493.5758316386,True
610,屏東縣瑪家鄉,三和村,1鄰6-3號,120.6089,22.7036,玉泉社區活動中心,玉泉社區,200,"水災,土石流",董賢明,983379985,是,否,是,209820.22241933373,2511515.423802938,True
611,高雄市仁武區,仁武里,仁祥街199號,120.3447169,22.70434779,仁武里活動中心,仁武里.後安里.竹後里,500,"水災,震災,土石流,海嘯",社會課災民收容業務承辦人,3751472,是,否,是,182678.98880567445,2511693.890310754,True
612,臺東縣臺東市,知本里,知本路三段13巷40號,121.055645,22.705462,知本社區活動中心,知本里,34,"水災,土石流",里長 馬捷,089-510110,是,否,否,255716.59798151942,2511669.7433222467,True
613,屏東縣瑪家鄉,北葉村,北葉村風景巷1鄰1號,120.646,22.7074,北葉國小體育館,排灣村、涼山村、北葉村、佳義村,320,"水災,震災,土石流",陳再興,08-7991649,是,是,是,213632.74179899078,2511926.633460516,True
614,臺東縣卑南鄉,溫泉村,台東市大順路33號,121.042182,22.707519,F Hotel,溫泉,30,"水災,土石流,海嘯",張晏菖,089-511555,否,否,否,254333.43378224055,2511897.056853393,True
615,高雄市楠梓區,廣昌里,廣昌街175巷37號,120.285079,22.707528,高雄市楠梓區廣、大、久、盛昌里活動中心,廣昌里、大昌里、久昌里、盛昌里,157,"水災,震災,土石流,海嘯",王嘉東,07-3517121,是,否,是,176553.5242996544,2512074.330276656,True
616,臺東縣臺東市,建業里,西昌街214號,121.050993,22.707748,建業社區活動中心,建業里,35,"水災,土石流",里長 王正元,089-512311,是,否,否,255238.59532240912,2511922.6978870784,True
617,高雄市仁武區,中華里,華園街25號,120.3272,22.7085,中華里活動中心,中華里,100,"水災,震災,土石流,海嘯",社會課災民收容業務承辦人,07-3719160,是,否,是,180881.403170812,2512161.7330878167,True
618,高雄市楠梓區,宏榮里,左楠路4號,120.302919,22.708958,高雄市楠梓區油廠國民小學,宏榮里、宏毅里,636,"水災,震災,土石流,海嘯",陳鼎華,07-3632300,是,否,是,178387.10191015672,2512223.962269371,True
619,屏東縣瑪家鄉,北葉村,風景巷1-8號,120.6479,22.7096,北葉社區活動中心,北葉村,443,"水災,土石流",馮文明,08-7991461,是,否,是,213828.512967532,2512169.7759497208,True
620,高雄市仁武區,竹後里,竹楠路250號,120.334866,22.710042,高雄市仁武區竹後國民小學,竹後里、中華里,429,"水災,震災,土石流,海嘯",社會課災民收容業務承辦人,07-3719159,是,否,是,181669.74289499904,2512328.9351637247,True
621,高雄市左營區,光輝里,後昌路842號,120.295275,22.711558,高雄市左營區莒光國民小學,光輝、莒光里,20,"水災,震災,土石流,海嘯",柯旭升,3612078#133,是,否,是,177603.15381393698,2512515.581716686,True
622,高雄市楠梓區,秀昌里,後昌路842號,120.295275,22.711558,高雄市楠梓區莒光國民小學,秀昌里、宏榮里,1273,"水災,震災,土石流,海嘯",周譽峰,07-3550571,是,否,是,177603.15381393698,2512515.581716686,True
623,高雄市楠梓區,泰昌里,盛昌街161號,120.286911,22.713585,高雄市立右昌國民中學,福昌里、興昌里,927,"水災,震災,土石流,海嘯",方靜慧,07-3640451,是,否,是,176744.962296621,2512744.1465270394,True
624,高雄市楠梓區,建昌里,加昌路910號,120.292106,22.713629,高雄市楠梓區右昌國民小學,建昌里、泰昌里,1291,"水災,震災,土石流,海嘯",陳春美,07-3612368,是,否,是,177278.68281610566,2512746.4633307518,True
625,屏東縣三地門鄉,三地村,行政街11號,120.6539,22.7141,三地門鄉立體育館,大社村 德文村 達來村 三地村,200,"水災,震災,土石流,海嘯",林明珠,08-7991104分機308,是,否,是,214446.06478474243,2512666.6126308115,True
626,屏東縣三地門鄉,三地村,行政街9號,120.654518,22.714903,地磨兒國小,三地村.德文村.達來村,60,"水災,震災,土石流",李振任,08-7991462,是,否,是,214509.75786085412,2512755.3811825966,True
627,高雄市楠梓區,宏榮里,加昌路631號,120.3018,22.7151,國軍退役官兵輔導委員會高雄榮譽國民之家,轄內安置時需要特別照顧之民眾,17,"水災,震災,土石流,海嘯",呂金仰,07-3652828,是,否,是,178275.34034880064,2512904.6354619837,True
628,高雄市楠梓區,宏昌里,後昌路960巷19號,120.2941,22.7154,高雄市楠梓區宏昌等六里聯合活動中心,全區綜合運用,60,"水災,震災,土石流,海嘯",王嘉東,07-3517121,是,否,是,177484.46500550903,2512941.5989149134,True
629,臺東縣臺東市,建和里,青海路3段640號,121.049167,22.716736,臺東縣臺東市建和國小,建和里,125,"水災,震災,土石流,海嘯",總務組楊主任宏業,512381-203,是,是,否,255050.67754037512,2512917.8665017467,True
630,高雄市楠梓區,國昌里,德民路1010號,120.2861,22.7194,高雄市立國昌國民中學,國昌里、裕昌里,800,"水災,震災,土石流,海嘯",王東進,07-3644300,是,否,是,176664.74440733873,2513388.4715690664,True
631,高雄市楠梓區,加昌里,樂群路220號,120.296547,22.720392,高雄市楠梓區加昌國民小學,加昌里、瑞屏里,1267,"水災,震災,土石流,海嘯,核子事故",郭鈴惠,07-3627169,是,否,是,177738.47000288626,2513493.1936245323,True
632,臺東縣臺東市,建農里,知本路一段560號,121.084143,22.720423,建農里民眾活動中心,建農里,29,"水災,土石流",里長 聶約翰,089-516409,是,否,否,258643.3552310515,2513327.738852791,True
633,高雄市楠梓區,瑞屏里,加昌路216號,120.314216,22.721706,高雄市楠梓區後勁國民小學,錦屏里、玉屏里、瑞屏路,873,"水災,震災,土石流,海嘯",趙梓晴,07-3626342,是,否,是,179554.23569909227,2513630.1994327423,True
634,高雄市大社區,中里里,文明路10巷3號,120.3513,22.7226,中里社區活動中心,中里里、觀音里,70,"水災,震災,土石流,海嘯",王佐楷,3512410,是,否,是,183364.16528849123,2513712.059170598,True
635,高雄市楠梓區,瑞屏里,加昌路180號,120.316198,22.722854,高雄市立後勁國民中學,金田里、稔田里,673,"水災,震災,土石流,海嘯",麥賢章,07-3654111,是,否,是,179758.42550654296,2513756.382824302,True
636,屏東縣九如鄉,九清村,九如路二段3-1號,120.4918,22.7233,九如鄉九如國民小學,東寧村、玉水村、九明村、大坵村、三塊村、洽興村〈為本鄉第三收容處所〉,129,"水災,震災",陳茂生,08-7392159#14,是,是,是,197797.19209269108,2513733.2858823626,True
637,高雄市楠梓區,仁昌里,壽豐路461號,120.294854,22.724246,高雄市楠梓區仁昌里活動中心,仁昌里,155,"水災,震災,土石流,海嘯",王嘉東,07-3517121,是,否,是,177566.58091871493,2513920.79206039,True
638,高雄市楠梓區,五常里,楠陽路100號,120.331144,22.724927,高雄市楠梓區楠陽國民小學,五常里、中陽里,1164,"水災,震災,土石流,海嘯",陳宗逸,07-3520675,是,否,是,181294.79497406143,2513978.934379885,True
639,高雄市楠梓區,翠屏里,德惠路55號,120.302159,22.726779,高雄市楠梓區翠屏里活動中心,翠屏里,280,"水災,震災,土石流,海嘯",王嘉東,07-3517121,是,否,是,178318.30521609355,2514197.7343383743,True
640,高雄市楠梓區,惠豐里,青田街87號,120.318969,22.727244,高雄市楠梓區惠豐里活動中心,惠豐里,115,"水災,震災,土石流,海嘯",王嘉東,07-3517121,是,否,是,180045.31020088273,2514241.1982179577,True
641,高雄市楠梓區,中和里,大學二十六街1150號,120.27799,22.728206,高雄市楠梓區援中國民小學,中和里、中興里,345,"水災,震災,土石流,海嘯",賴賢貴,07-3612193,是,否,是,175836.36208258057,2514367.638865639,True
642,高雄市楠梓區,惠楠里,楠梓新路264號7樓,120.3263,22.7283,高雄市楠梓區行政中心7樓大禮堂,全區綜合運用,100,"水災,震災,土石流,海嘯",王嘉東,07-3517121,是,否,是,180798.89764598332,2514354.6941864323,True
643,高雄市梓官區,智蚵里,中正二街60號,120.25873,22.728551,高雄市立蚵寮國民中學（備用）,全區,400,"水災,震災,土石流",林碧真主任,6172831轉31,是,否,是,173858.1216983582,2514415.6040822566,True
644,高雄市大社區,神農里,翠屏路100號,120.357267,22.729029,高雄市立大社國民中學,全區，主要作為地震避難所,500,"水災,震災,土石流,海嘯",潭三白,07-3530100,是,否,是,183980.21170423174,2514421.299863578,True
645,高雄市大社區,神農里,金龍路65號,120.3546,22.7293,大社老人文康中心,觀音里、神農里、翠屏里,200,"水災,震災,土石流,海嘯",柯金雀,3541509,是,否,是,183706.3871527628,2514452.498720495,True
646,高雄市楠梓區,翠屏里,翠屏路135號,120.299446,22.729477,高雄市立翠屏國民中小學,翠屏里,1545,"水災,震災,土石流,海嘯",葉偉娟,07-3683018,否,否,是,178041.0295645293,2514497.8113276036,True
647,高雄市楠梓區,藍田里,藍昌路416號,120.2922,22.7295,高雄市立中山高級中學,藍田里,1528,"水災,震災,土石流,海嘯",王雪娥,07-3641116,是,否,是,177296.72602618535,2514503.892946672,True
648,高雄市梓官區,信蚵里,廣澤路3號,120.254588,22.729634,智信蚵社區聯合活動中心（備用）,全區,150,水災,黃信長,6101938,是,否,是,173433.2491096183,2514537.6638021315,True
649,高雄市大社區,大社里,大社區自強街1號,120.3466,22.73,大社中山堂,三奶里、大社里,150,"水災,震災,土石流,海嘯",張立憲,07-3513300轉113,是,否,是,182884.9669551694,2514533.6115756626,True
650,高雄市楠梓區,惠民里,高楠公路1868巷100號,120.323083,22.732098,高雄市楠梓區惠民里集會所,惠民里,125,"水災,震災,土石流,海嘯",王嘉東,07-3517121,是,否,是,180470.36306943023,2514776.769241854,True
651,臺東縣臺東市,豐里里,豐里街756巷20號,121.116004,22.732187,豐里社區活動中心,豐里里、豐原里、豐谷里、豐榮里,27,"水災,土石流",理事長 鄭彼得,932535408,是,否,否,261915.17152098898,2514632.5660624164,True
652,高雄市楠梓區,東寧里,楠梓路262號,120.3284,22.7322,高雄市楠梓區楠梓國民小學,東寧里、享平里,1164,"水災,震災,土石流,海嘯",劉昆靈,07-3511140,是,否,是,181016.56846466614,2514785.580451655,True
653,高雄市梓官區,禮蚵里,光明路177號,120.248239,22.733411,高雄市梓官區蚵寮國民小學（備用）,全區,300,水災,陳冠宏主任,6101044（O）6178741（H）,是,否,是,172783.19094276876,2514959.2059420617,True
654,高雄市楠梓區,東寧里,楠梓路336號,120.327507,22.733936,高雄市立楠梓國民中學,東寧里、清豐里,1091,"水災,震災,土石流,海嘯",邱從益,07-3517191,是,否,是,180925.71291143086,2514978.2315085153,True
655,高雄市大社區,保安里,大社路87-3號,120.3527,22.7341,保安里活動中心,保安里、大社里、保社里、嘉誠里,80,"水災,震災,土石流,海嘯",林義萬,3512622,是,否,是,183513.5393100265,2514984.8735648147,True
656,屏東縣九如鄉,東寧村,九如路二段264號,120.4896,22.7344,九如鄉圖書館,東寧村、玉水村、九明村、大坵村、三塊村、洽興村〈為本鄉第二收容處所〉,100,水災,藍鶯芬,08-7393503,是,否,是,197575.43228635786,2514963.190027013,True
657,高雄市梓官區,赤東里,中正路519號,120.25016,22.736052,赤崁老人活動中心（備用）,全區,160,水災,陳怡安,7991213,是,否,是,172981.99283999106,2515250.6602739645,True
658,臺東縣卑南鄉,太平村,台東市大學路2段369號,121.070583,22.736056,國立臺東大學,卑南鄉,50,,黃士昌,089-517395,否,否,否,257249.6175657469,2515058.042235076,True
659,高雄市橋頭區,甲北里,甲昌路250號,120.293408,22.736237,高雄市橋頭區甲圍國民小學,甲北里、三德里、甲南里、頂鹽里,540,"水災,震災,海嘯,坡地災害",黃德信主任,07-6113647#240,否,否,否,177424.36839011344,2515249.3239463577,True
660,屏東縣鹽埔鄉,新二村,維新路67號,120.5539,22.7383,新圍國小,新二村、新圍村、仕絨村,400,"水災,震災",朱芳謀,08-7932269-14,是,否,是,204181.26019501974,2515373.7380512804,True
661,屏東縣鹽埔鄉,洛陽村,七份路21號,120.5314,22.7399,彭厝國小,洛陽村、永隆村、彭厝村,280,水災,曾崑煇,08-7031509-14,是,否,是,201870.81943776231,2515558.039466445,True
662,屏東縣九如鄉,東寧村,九如路二段416號,120.4904,22.7404,九如鄉公所禮堂,東寧村、玉水村、九明村、大坵村、三塊村、洽興村〈為本鄉第一收容處所〉,100,水災,陳弘益,08-7392210#15,是,否,是,197659.8880223799,2515627.3015965195,True
663,高雄市大樹區,興田里,興田路59號,120.445966,22.740507,高雄市大樹區興田國民小學,興田里、統嶺里,666,"水災,震災,土石流,海嘯",簡裕人,07-6561527轉50,否,否,否,193096.0985975786,2515655.5255415346,True
664,屏東縣三地門鄉,賽嘉村,賽嘉巷2號,120.6394454,22.74307039,賽嘉國小,賽嘉村,20,"水災,土石流",鍾仁智,08-7992220,是,否,否,212968.96814635664,2515878.060268847,True
665,屏東縣三地門鄉,賽嘉村,賽嘉巷1號,120.640299,22.743817,賽嘉村辦公處含活動中心,賽嘉村,150,"水災,震災,土石流",董清吉,918382731,是,是,是,213056.83924907414,2515960.5200336096,True
666,高雄市楠梓區,清豐里,清豐路19號,120.331155,22.744044,高雄市立楠梓高級中學,清豐里,1528,"水災,震災,土石流,海嘯",許文宗,07-3550571,是,否,是,181305.47555990718,2516095.842038229,True
667,屏東縣霧臺鄉,霧台村,9鄰76號,120.7312,22.7445,霧台長老教會,霧台村7.8.9.10鄰,40,"水災,震災,土石流",達努巴克,08-7902234,是,否,否,222393.0377335393,2516016.351923976,True
668,屏東縣霧臺鄉,霧台村,中山巷46-3號,120.7321,22.745,霧台社區活動中心,全鄉,60,"水災,震災,土石流",柯秋美,932882784,是,否,是,222485.5723230926,2516071.549662869,True
669,屏東縣霧臺鄉,霧台村,中山巷44號,120.7312,22.7452,霧臺國小,全鄉,310,"水災,震災,土石流",曾美珍,08-7902230,是,是,是,222393.17832778455,2516093.8630953017,True
670,屏東縣霧臺鄉,霧台村,中山巷44號,120.723288,22.747111,霧台國小運動場,霧台村4-10鄰,250,震災,陳美惠,08-7902230,否,是,否,221580.97542380242,2516306.9643774764,False
671,高雄市大樹區,興田里,興田路153號,120.4463,22.7473,佛光山寺備用,全區調度備用,500,"水災,震災,土石流,海嘯",林利國主任,6561921#1214，1217，1218,是,否,是,193133.21441159997,2516407.6067615044,True
672,屏東縣霧臺鄉,霧台村,神山巷71號,120.7263,22.7498,霧台鄉避難收容所,全鄉,40,"水災,震災,土石流",包清健,08-7902234轉123,是,否,是,221890.86714808515,2516604.143696456,True
673,屏東縣霧臺鄉,霧台村,神山社區,120.719513,22.750455,神山社區活動中心運動場,神山社區,200,震災,賴松忠,921579026,否,是,是,221193.9721296999,2516677.9757003314,True
674,高雄市橋頭區,仕隆里,仕隆路進校巷16號,120.310636,22.750578,高雄市橋頭區仕隆國民小學,仕隆里、新莊里,1343,"震災,海嘯,坡地災害",李月娥主任,6113517#40,否,否,否,179201.34271596812,2516829.0428826623,True
675,高雄市橋頭區,橋南里,興糖路19巷1號.,120.317,22.750876,高雄市橋頭區興糖國民小學,橋南里,676,"水災,震災,海嘯,坡地災害",蕭家仁主任,07-6113804#31,否,否,否,179855.10859551106,2516859.0146153765,True
676,高雄市燕巢區,鳳雄里,鳳加路52號,120.358101,22.753304,高雄市燕巢區鳳雄國民小學（備用）,鳳雄里、角宿里,250,"水災,震災,土石流,海嘯",總務主任黃筱晶,07-6153782#40,是,否,是,184077.52252878627,2517109.002445396,True
677,屏東縣鹽埔鄉,鹽南村,勝利路30號,120.5741,22.7536,鹽埔國中,久愛村、振興村、高朗村,600,"水災,震災",謝惠宇,08-7932001-14,是,否,是,206260.89048904154,2517061.828300984,True
678,臺東縣臺東市,文化里,博愛路365號,121.146637,22.754695,臺東市公所,市內各里,34,"水災,震災,土石流,海嘯",社會課 劉金強,089-325301,是,否,否,265059.1311175436,2517127.655087648,True
679,高雄市燕巢區,鳳雄里,鳳旗路23號,120.3602,22.7555,鳳雄營區,如需進行異地收容安置方才啟用，視情況調度收容對象,900,"水災,震災,土石流,海嘯",社會局救助科-林宗德股長,3368333轉2063,是,否,是,184294.1446822766,2517351.2425745563,True
680,高雄市梓官區,梓平里,梓官路城隍巷123-1號,120.269167,22.756467,梓平社區活動中心（備用）,全區,100,"水災,海嘯",蔡焙璋,6177270,是,否,是,174945.47675969754,2517501.5805375427,True
681,屏東縣鹽埔鄉,鹽北村,勝利路189號,120.575722,22.756522,鄉立幼兒園,鹽北村、鹽中村、鹽南村,250,"水災,震災",張鶯雀,08-7934629,是,否,是,206428.39567419034,2517384.9082274237,True
682,高雄市橋頭區,橋頭里,隆豐路1號,120.3058,22.7576,橋頭區公所,仕和里、仕隆里、仕豐里、橋南里,150,"水災,震災,土石流,海嘯",史鎮維,6110246轉123,是,否,是,178708.30568977218,2517608.9450186496,True
683,高雄市橋頭區,白樹里,新興路70號,120.30751,22.759012,高雄市立橋頭國民中學,白樹里、中崎里、筆秀里、德松里、橋頭里,1484,"水災,震災,海嘯,坡地災害",趙偉翔,07-6113559#32,否,否,否,178884.65330162967,2517764.4811061835,True
684,高雄市梓官區,梓和里,大宅街38號,120.266109,22.759573,梓和社區活動中心（備用）,全區,80,水災,陳金榮,6101632,是,否,是,174633.12087633758,2517847.0793799465,True
685,高雄市橋頭區,東林里,五林路160號,120.293721,22.75995,高雄市橋頭區五林國民小學,東林里、西林里、芋寮里,1343,"水災,震災,海嘯,坡地災害",陳淑惠,07-6113549#140,否,否,否,177469.03548175743,2517875.0385080157,True
686,高雄市梓官區,梓和里,進學路614號,120.264756,22.760292,梓官國小（備用）,全區,400,水災,郭啟鴻主任,6176595（O）3893355（H）,是,否,是,174494.56456140548,2517927.387800158,True
687,高雄市彌陀區,過港里,進學路136號,120.262962,22.760359,高雄市立彌陀國民中學（備用）,全區調度配合,250,"震災,海嘯",謝哲賢,07-6178424#35,是,否,是,174310.36058714264,2517935.722959606,True
688,高雄市梓官區,梓義里,梓官路258號,120.2673,22.7607,梓官區公所,梓和里、中崙里、同安里,60,"水災,震災,土石流,海嘯",社會課長楊玥珍/承辦人許秀桃,07-6174111轉141或轉136,是,否,是,174756.05269812513,2517971.2731904346,True
689,臺東縣臺東市,中華里,華泰街231號,121.158116,22.761527,中華社區活動中心,中華里,34,"水災,土石流",里長 羅進坤,089-321011,是,否,否,266237.18058303895,2517885.3741624258,True
690,高雄市橋頭區,橋頭里,樹德路200號,120.305864,22.761764,高雄市橋頭區橋頭國民小學,白樹里、中崎里、筆秀里、德松里、橋頭里,1105,"水災,震災,土石流,海嘯",孫明輝,6126011-41,否,否,是,178717.03970704394,2518070.0160993817,True
691,高雄市梓官區,梓信里,中學路71號,120.263476,22.762428,高雄市立梓官國民中學,全區，主以淹水潛勢區中崙里、梓信里、梓和里、梓平里、同安里、典寶里、禮蚵里、智蚵里、信蚵里,400,"水災,震災,土石流",黃景隆/總務主任,07-617285431,是,否,是,174364.28707828556,2518164.573257558,True
692,臺東縣臺東市,新園里,中興路6段708號,121.052313,22.763938,新園社區活動中心,新園里,40,"水災,土石流",里長 陳輝宗,089-380311,是,否,否,255372.0056054593,2518144.624022471,True
694,臺東縣臺東市,四維里,博愛路16號,121.154697,22.764164,四維寶桑多功能活動中心,四維里、寶桑里,17,"水災,土石流",江金妮,089-340722,是,否,否,265885.77245207824,2518176.9981382783,True
695,臺東縣卑南鄉,東興村,東興村東園一街120號,121.041149,22.765011,東興村活動中心,東興村,70,,藍代志,089-382505,否,否,否,254225.54476204596,2518263.075166314,True
696,臺東縣臺東市,新園里,新園路88號,121.062352,22.765066,臺東縣臺東市新園國小,新園里,75,"水災,震災,土石流,海嘯",總務組呂主任輝榮,089-382590-13,是,是,否,256402.85504340357,2518269.926275768,True
697,屏東縣里港鄉,塔樓村,塔樓路21-3號,120.4838,22.7655,塔樓國小,塔樓村、潮厝村,320,"水災,震災",黃志賢,08-7756625,是,否,是,196991.68579634198,2518409.037375318,True
698,屏東縣三地門鄉,口社村,信義巷65號,120.6445,22.7666,口社國小,口社村,30,"水災,震災,土石流",王逸棻,08-7956495,是,否,是,213494.36227080165,2518482.2640086645,True
699,高雄市燕巢區,橫山里,橫山路24號,120.379471,22.768542,高雄市燕巢區橫山國民小學（備用）,橫山里,60,"水災,震災,土石流,海嘯",總務主任陳聰敏,07-6152479#40,是,否,是,186279.33532419498,2518787.0180798727,True
700,屏東縣三地門鄉,口社村,信義巷1號,120.647735,22.76925,口社村辦公處含活動中心,口社村,100,"水災,震災,土石流",高玉金,981488861,是,是,是,213827.2596037009,2518774.907625073,True
701,屏東縣三地門鄉,德文村,3鄰4號,120.701867,22.770929,地磨兒國小德文分校,德文村,30,"水災,震災,土石流",陳順歸,08-7996065,是,否,否,219386.27987036947,2518948.614090564,True
702,臺東縣卑南鄉,太平村,臺東市豐年里17鄰中興路三段549號,121.106473,22.771069,財團法人臺東縣私立仁愛之家,卑南鄉,20,,林鴻祺,089-227592#222,否,否,否,260933.11457868427,2518937.220439143,True
703,屏東縣三地門鄉,德文村,德文巷9號,120.701874,22.771351,德文村辦公處含活動中心,德文村,40,"水災,震災,土石流",陳順歸,08-7996065,是,否,是,219387.09277723386,2518995.341043092,True
704,臺東縣臺東市,南榮里,更生路 1010 號,121.132093,22.772402,行政院國軍退除役官兵輔導委員會馬蘭榮譽國民之家,臺東縣,10,,許念祖,222417,否,否,否,263563.7597897701,2519086.9433447337,True
705,高雄市旗山區,南勝里,旗南三路234號,120.4417,22.7737,嶺口營區,如需異地收容安置方才啟用，視情況調度收容對象,700,"水災,震災,土石流,海嘯",社會局救助科-林宗德股長,3368333轉2063,是,否,是,192671.7898916192,2519332.7389348457,True
706,屏東縣里港鄉,玉田村,八德路91號,120.4912,22.7743,玉田國小,玉田村、春林村、大平村,1800,"水災,震災",潘正憲,08-7752816,是,否,否,197754.95140735822,2519380.855751316,True
707,臺東縣臺東市,豐田里,中興路4段735號,121.086381,22.774331,豐田里民眾活動中心,豐田里,18,"水災,土石流",理事長黃泉智,089-381878,是,否,否,258869.76788861144,2519297.0773263434,True
708,臺東縣卑南鄉,利嘉村,利嘉村17鄰利嘉路669號,121.061011,22.77663,利嘉村活動中心,利嘉村,30,,曾新福,089-382446,否,否,否,256264.62151961913,2519550.3481928594,True
709,高雄市旗山區,南勝里,龍文巷30號之3,120.4488,22.7768,南勝社區活動中心備用,南勝里（嶺口地區）,30,水災,南勝里長 蘇國泰,6651182、0910848955,是,否,是,193402.13730610814,2519673.2799616605,True
710,高雄市燕巢區,深水里,深中路2號,120.405278,22.777039,高雄市燕巢區深水國民小學（備用）,深水里,60,"水災,震災,土石流,海嘯",總務主任劉晉松,07-6152447#204,是,否,是,188933.2446122652,2519717.047464166,True
711,屏東縣里港鄉,過江村,過江路43-1號,120.494,22.7802,里港鄉立圖書館,過江村,200,"水災,震災",陳世宗,08-7755754,是,否,是,198044.70256500496,2520033.194069691,True
712,屏東縣里港鄉,載興村,載興路1-3號,120.5242,22.7806,載興國小,載興村、茄苳村,1000,"水災,震災",王美玲,08-7752271,是,否,是,201145.78613203787,2520067.199672019,True
713,屏東縣里港鄉,過江村,過江路41號,120.4945,22.7807,里港國小,過江村、永春村、鐵店村,1500,"水災,震災",陳奇男,08-7752161,是,否,是,198096.23187559977,2520088.385053407,True
714,高雄市燕巢區,深水里,深水路1號,120.4189,22.781,高雄市政府社會局仁愛之家,有安養護需求之異地安置受災民眾，計有（養護床5床、安養床10床、失智床10床）視情況進行開設,25,"水災,震災,土石流,海嘯",總務組,07-6152611-103,是,否,是,190333.724249159,2520150.1075766957,True
715,高雄市彌陀區,彌仁里,中華路4號,120.2506,22.7817,彌陀區公所,彌壽里、彌陀里、彌仁里、海尾里、漯底里、南寮里,100,"水災,震災,海嘯",社會課長薛清娜/承辦人王絢玉,07-6191216轉22或轉50,是,否,是,173052.7666759294,2520305.320607779,True
716,臺東縣卑南鄉,太平村,太平村和平路128巷8號,121.088375,22.781975,太平村活動中心,太平村,80,,賴幸蘭,089-380948,否,否,否,259074.01031109688,2520143.617852201,True
717,臺東縣臺東市,卑南里,南清街23號,121.122367,22.782039,卑南里民眾活動中心,卑南里、岩灣里,40,"水災,土石流",里長 陳志雄,089-221917,是,否,否,262564.17749913066,2520153.190055365,True
718,高雄市岡山區,和平里,和平路1號,120.303827,22.782054,高雄市岡山區和平國民小學,依需求全區調度,567,"水災,震災,土石流,海嘯",蘇俊玉,6254220轉40,是,否,否,178518.41404644313,2520317.8219188596,True
719,高雄市彌陀區,彌仁里,中華路1巷1弄12號,120.2499242,22.78219078,彌仁社區活動中心（備用）,全區調度配合,100,"水災,震災,海嘯",蔣惠雯,07-6191216#16,是,否,是,172983.64930088952,2520360.019540626,True
720,高雄市燕巢區,南燕里,中興路427號,120.362246,22.782475,燕巢區民眾活動中心,全區（優先開設）,120,"水災,震災,土石流,海嘯",莊萬榮,6161411轉178,是,否,是,184517.13823566918,2520337.401088498,True
721,臺東縣臺東市,富豐里,吉林路一段279巷58號,121.161997,22.782915,富豐社區活動中心,富豐里,34,"水災,土石流",里長吳英蘭,089-226527,是,否,否,266633.1354677322,2520254.0997792776,True
722,高雄市彌陀區,彌靖里,中正路213號,120.247781,22.783678,高雄市彌陀區彌陀國民小學,舊港里、文安里、過港里、鹽埕里、光和里、彌靖里,300,"水災,震災,土石流,海嘯",張錫傑,07-6176300#31,是,否,是,172764.41804369172,2520525.826545014,True
723,高雄市岡山區,信義里,介壽60號,120.28671,22.785034,高雄市岡山區兆湘國民小學,依需求全區調度,611,"水災,震災,土石流,海嘯",洪利?,07-6252394#50,是,否,否,176762.40406009686,2520656.1867195717,True
724,高雄市燕巢區,南燕里,中興路267號,120.362845,22.785833,高雄市立燕巢國民中學（備用）,南燕里、角宿里,400,"水災,震災,土石流,海嘯",總務主任陳宏成,6164290,是,否,是,184580.24516169826,2520708.9834074997,True
725,高雄市彌陀區,過港里,鹽港二路53之6號,120.2425845,22.78790506,鹽埕過港社區康樂室（備用）,全區調度配合,50,"水災,震災,海嘯",陳永昌,07-6191216#29,是,否,是,172233.23186229696,2520996.639858325,True
726,屏東縣高樹鄉,泰山村,產業路84號,120.6142,22.788,屏東縣立泰山國民小學,泰山村,0,"水災,土石流",李洪揚,08-7956274#14,是,否,是,210389.05690290855,2520859.709693762,True
727,高雄市燕巢區,安招里,中安路1號,120.362079,22.78808,燕巢區公所禮堂,全區（第二優先）,100,"水災,震災,土石流,海嘯",燕巢區公所陳玉寀,6161411轉178,是,否,是,184502.66699391993,2520958.1434701835,True
